[{"lon":21.94706,"lat":48.96574,"ROUTE_NUMBER":"Os 8912 ","DELAY":0,"Current_Stop":"Udavské","From":"Medzilaborce mesto","Destination":"Humenné","Direction":1,"Current_Time":1615285134687,"Current_Day":9,"Current_Hour":11,"Current_Minutes":18,"Current_Seconds":54},{"lon":20.81501,"lat":48.81167,"ROUTE_NUMBER":"Os 7415 ","DELAY":0,"Current_Stop":"Mníšek nad Hnilcom","From":"Nálepkovo","Destination":"Margecany","Direction":7,"Current_Time":1615285194642,"Current_Day":9,"Current_Hour":11,"Current_Minutes":19,"Current_Seconds":54},{"lon":20.56151,"lat":48.95041,"ROUTE_NUMBER":"R 601 TATRAN","DELAY":300,"Current_Stop":"Spišská Nová Ves","From":"Bratislava hlavná stanica","Destination":"Košice","Direction":20,"Current_Time":1615284834529,"Current_Day":9,"Current_Hour":11,"Current_Minutes":13,"Current_Seconds":54},{"lon":21.24601,"lat":48.7958,"ROUTE_NUMBER":"Os 7814 ","DELAY":0,"Current_Stop":"Kostoľany nad Hornádom","From":"Košice","Destination":"Poprad-Tatry","Direction":9,"Current_Time":1615285764696,"Current_Day":9,"Current_Hour":11,"Current_Minutes":29,"Current_Seconds":24},{"lon":20.63426,"lat":48.91024,"ROUTE_NUMBER":"Os 7817 ","DELAY":0,"Current_Stop":"Markušovce","From":"Poprad-Tatry","Destination":"Košice","Direction":17,"Current_Time":1615286274796,"Current_Day":9,"Current_Hour":11,"Current_Minutes":37,"Current_Seconds":54},{"lon":21.91384,"lat":48.39032,"ROUTE_NUMBER":"Os 8813 ","DELAY":0,"Current_Stop":"Veľký Horeš","From":"Košice","Destination":"Čierna nad Tisou","Direction":8,"Current_Time":1615286394789,"Current_Day":9,"Current_Hour":11,"Current_Minutes":39,"Current_Seconds":54},{"lon":21.89858,"lat":48.75074,"ROUTE_NUMBER":"REX 1908 ","DELAY":120,"Current_Stop":"Michalovce","From":"Humenné","Destination":"Košice","Direction":10,"Current_Time":1615287234902,"Current_Day":9,"Current_Hour":11,"Current_Minutes":53,"Current_Seconds":54},{"lon":21.629827,"lat":48.61264,"ROUTE_NUMBER":"REX 1901 ","DELAY":360,"Current_Stop":"Čeľovce","From":"Košice","Destination":"Humenné","Direction":15,"Current_Time":1615286919858,"Current_Day":9,"Current_Hour":11,"Current_Minutes":48,"Current_Seconds":39},{"lon":22.02501,"lat":48.40713,"ROUTE_NUMBER":"Os 8813 ","DELAY":0,"Current_Stop":"Dobrá","From":"Košice","Destination":"Čierna nad Tisou","Direction":8,"Current_Time":1615286919858,"Current_Day":9,"Current_Hour":11,"Current_Minutes":48,"Current_Seconds":39},{"lon":21.90506,"lat":49.26186,"ROUTE_NUMBER":"Os 8915 ","DELAY":0,"Current_Stop":"Medzilaborce","From":"Humenné","Destination":"Medzilaborce mesto","Direction":13,"Current_Time":1615287174903,"Current_Day":9,"Current_Hour":11,"Current_Minutes":52,"Current_Seconds":54},{"lon":21.629827,"lat":48.61264,"ROUTE_NUMBER":"REX 1901 ","DELAY":360,"Current_Stop":"Čeľovce","From":"Košice","Destination":"Humenné","Direction":15,"Current_Time":1615286904890,"Current_Day":9,"Current_Hour":11,"Current_Minutes":48,"Current_Seconds":24},{"lon":22.02501,"lat":48.40713,"ROUTE_NUMBER":"Os 8813 ","DELAY":0,"Current_Stop":"Dobrá","From":"Košice","Destination":"Čierna nad Tisou","Direction":8,"Current_Time":1615286904890,"Current_Day":9,"Current_Hour":11,"Current_Minutes":48,"Current_Seconds":24},{"lon":21.249126,"lat":48.983379,"ROUTE_NUMBER":"Os 8515 ","DELAY":180,"Current_Stop":"Prešov","From":"Lipany","Destination":"Košice","Direction":18,"Current_Time":1615286724831,"Current_Day":9,"Current_Hour":11,"Current_Minutes":45,"Current_Seconds":24},{"lon":21.01324,"lat":48.89469,"ROUTE_NUMBER":"R 601 TATRAN","DELAY":540,"Current_Stop":"Margecany","From":"Bratislava hlavná stanica","Destination":"Košice","Direction":20,"Current_Time":1615286694829,"Current_Day":9,"Current_Hour":11,"Current_Minutes":44,"Current_Seconds":54},{"lon":21.249126,"lat":48.983379,"ROUTE_NUMBER":"Os 8515 ","DELAY":180,"Current_Stop":"Prešov","From":"Lipany","Destination":"Košice","Direction":18,"Current_Time":1615286739862,"Current_Day":9,"Current_Hour":11,"Current_Minutes":45,"Current_Seconds":39},{"lon":21.249126,"lat":48.983379,"ROUTE_NUMBER":"Os 8515 ","DELAY":240,"Current_Stop":"Prešov","From":"Lipany","Destination":"Košice","Direction":18,"Current_Time":1615286754819,"Current_Day":9,"Current_Hour":11,"Current_Minutes":45,"Current_Seconds":54},{"lon":20.51402,"lat":48.63529,"ROUTE_NUMBER":"R 931 GEMERAN","DELAY":360,"Current_Stop":"Rožňava","From":"Zvolen osobná stanica","Destination":"Košice","Direction":19,"Current_Time":1615286694829,"Current_Day":9,"Current_Hour":11,"Current_Minutes":44,"Current_Seconds":54},{"lon":21.22393,"lat":48.85288,"ROUTE_NUMBER":"R 601 TATRAN","DELAY":300,"Current_Stop":"Kysak","From":"Bratislava hlavná stanica","Destination":"Košice","Direction":20,"Current_Time":1615287384933,"Current_Day":9,"Current_Hour":11,"Current_Minutes":56,"Current_Seconds":24},{"lon":21.95465,"lat":49.05145,"ROUTE_NUMBER":"Os 8915 ","DELAY":0,"Current_Stop":"Koškovce","From":"Humenné","Destination":"Medzilaborce mesto","Direction":13,"Current_Time":1615284054429,"Current_Day":9,"Current_Hour":11,"Current_Minutes":0,"Current_Seconds":54},{"lon":22.05519,"lat":48.95489,"ROUTE_NUMBER":"Os 9414 ","DELAY":0,"Current_Stop":"Dlhé nad Cirochou","From":"Stakčín","Destination":"Humenné","Direction":5,"Current_Time":1615284054429,"Current_Day":9,"Current_Hour":11,"Current_Minutes":0,"Current_Seconds":54},{"lon":21.31413,"lat":49.14945,"ROUTE_NUMBER":"Os 9212 ","DELAY":0,"Current_Stop":"Raslavice","From":"Bardejov","Destination":"Prešov","Direction":16,"Current_Time":1615284114434,"Current_Day":9,"Current_Hour":11,"Current_Minutes":1,"Current_Seconds":54},{"lon":22.05519,"lat":48.95489,"ROUTE_NUMBER":"Os 9415 ","DELAY":0,"Current_Stop":"Dlhé nad Cirochou","From":"Humenné","Destination":"Stakčín","Direction":6,"Current_Time":1615284145467,"Current_Day":9,"Current_Hour":11,"Current_Minutes":2,"Current_Seconds":25},{"lon":21.22393,"lat":48.85288,"ROUTE_NUMBER":"Os 8512 ","DELAY":240,"Current_Stop":"Kysak","From":"Košice","Destination":"Prešov","Direction":11,"Current_Time":1615283844431,"Current_Day":9,"Current_Hour":10,"Current_Minutes":57,"Current_Seconds":24},{"lon":22.05519,"lat":48.95489,"ROUTE_NUMBER":"Os 9414 ","DELAY":0,"Current_Stop":"Dlhé nad Cirochou","From":"Stakčín","Destination":"Humenné","Direction":5,"Current_Time":1615284024425,"Current_Day":9,"Current_Hour":11,"Current_Minutes":0,"Current_Seconds":24},{"lon":21.241086,"lat":48.873332,"ROUTE_NUMBER":"Os 8513 ","DELAY":0,"Current_Stop":"Ličartovce","From":"Prešov","Destination":"Košice","Direction":40,"Current_Time":1615283964415,"Current_Day":9,"Current_Hour":10,"Current_Minutes":59,"Current_Seconds":24},{"lon":21.241086,"lat":48.873332,"ROUTE_NUMBER":"Os 8513 ","DELAY":0,"Current_Stop":"Ličartovce","From":"Prešov","Destination":"Košice","Direction":40,"Current_Time":1615283994433,"Current_Day":9,"Current_Hour":10,"Current_Minutes":59,"Current_Seconds":54},{"lon":21.31413,"lat":49.14945,"ROUTE_NUMBER":"Os 9213 ","DELAY":0,"Current_Stop":"Raslavice","From":"Prešov","Destination":"Bardejov","Direction":4,"Current_Time":1615283994433,"Current_Day":9,"Current_Hour":10,"Current_Minutes":59,"Current_Seconds":54},{"lon":22.05519,"lat":48.95489,"ROUTE_NUMBER":"Os 9414 ","DELAY":0,"Current_Stop":"Dlhé nad Cirochou","From":"Stakčín","Destination":"Humenné","Direction":5,"Current_Time":1615284039536,"Current_Day":9,"Current_Hour":11,"Current_Minutes":0,"Current_Seconds":39},{"lon":22.05519,"lat":48.95489,"ROUTE_NUMBER":"Os 9415 ","DELAY":0,"Current_Stop":"Dlhé nad Cirochou","From":"Humenné","Destination":"Stakčín","Direction":6,"Current_Time":1615284159534,"Current_Day":9,"Current_Hour":11,"Current_Minutes":2,"Current_Seconds":39},{"lon":21.241086,"lat":48.873332,"ROUTE_NUMBER":"Os 8512 ","DELAY":180,"Current_Stop":"Ličartovce","From":"Košice","Destination":"Prešov","Direction":11,"Current_Time":1615284264451,"Current_Day":9,"Current_Hour":11,"Current_Minutes":4,"Current_Seconds":24},{"lon":22.05519,"lat":48.95489,"ROUTE_NUMBER":"Os 9415 ","DELAY":0,"Current_Stop":"Dlhé nad Cirochou","From":"Humenné","Destination":"Stakčín","Direction":6,"Current_Time":1615284174445,"Current_Day":9,"Current_Hour":11,"Current_Minutes":2,"Current_Seconds":54},{"lon":21.241086,"lat":48.873332,"ROUTE_NUMBER":"Os 8512 ","DELAY":180,"Current_Stop":"Ličartovce","From":"Košice","Destination":"Prešov","Direction":11,"Current_Time":1615284279453,"Current_Day":9,"Current_Hour":11,"Current_Minutes":4,"Current_Seconds":39},{"lon":21.22393,"lat":48.85288,"ROUTE_NUMBER":"Os 8512 ","DELAY":240,"Current_Stop":"Kysak","From":"Košice","Destination":"Prešov","Direction":11,"Current_Time":1615283874421,"Current_Day":9,"Current_Hour":10,"Current_Minutes":57,"Current_Seconds":54},{"lon":21.22393,"lat":48.85288,"ROUTE_NUMBER":"Os 8512 ","DELAY":240,"Current_Stop":"Kysak","From":"Košice","Destination":"Prešov","Direction":11,"Current_Time":1615283859421,"Current_Day":9,"Current_Hour":10,"Current_Minutes":57,"Current_Seconds":39},{"lon":21.32044,"lat":49.04386,"ROUTE_NUMBER":"Os 9115 ","DELAY":0,"Current_Stop":"Kapušany pri Prešove","From":"Prešov","Destination":"Humenné","Direction":12,"Current_Time":1615283874421,"Current_Day":9,"Current_Hour":10,"Current_Minutes":57,"Current_Seconds":54},{"lon":21.32044,"lat":49.04386,"ROUTE_NUMBER":"Os 9112 ","DELAY":0,"Current_Stop":"Kapušany pri Prešove","From":"Humenné","Destination":"Prešov","Direction":3,"Current_Time":1615283904414,"Current_Day":9,"Current_Hour":10,"Current_Minutes":58,"Current_Seconds":24},{"lon":21.241086,"lat":48.873332,"ROUTE_NUMBER":"Os 8513 ","DELAY":0,"Current_Stop":"Ličartovce","From":"Prešov","Destination":"Košice","Direction":40,"Current_Time":1615283979418,"Current_Day":9,"Current_Hour":10,"Current_Minutes":59,"Current_Seconds":39},{"lon":21.32044,"lat":49.04386,"ROUTE_NUMBER":"Os 9112 ","DELAY":0,"Current_Stop":"Kapušany pri Prešove","From":"Humenné","Destination":"Prešov","Direction":3,"Current_Time":1615283919418,"Current_Day":9,"Current_Hour":10,"Current_Minutes":58,"Current_Seconds":39},{"lon":21.95465,"lat":49.05145,"ROUTE_NUMBER":"Os 8912 ","DELAY":0,"Current_Stop":"Koškovce","From":"Medzilaborce mesto","Destination":"Humenné","Direction":1,"Current_Time":1615284339496,"Current_Day":9,"Current_Hour":11,"Current_Minutes":5,"Current_Seconds":39},{"lon":21.6262,"lat":48.52172,"ROUTE_NUMBER":"Os 8814 ","DELAY":420,"Current_Stop":"Michaľany","From":"Čierna nad Tisou","Destination":"Košice","Direction":25,"Current_Time":1615284294447,"Current_Day":9,"Current_Hour":11,"Current_Minutes":4,"Current_Seconds":54},{"lon":21.95465,"lat":49.05145,"ROUTE_NUMBER":"Os 8912 ","DELAY":0,"Current_Stop":"Koškovce","From":"Medzilaborce mesto","Destination":"Humenné","Direction":1,"Current_Time":1615284324455,"Current_Day":9,"Current_Hour":11,"Current_Minutes":5,"Current_Seconds":24},{"lon":21.22393,"lat":48.85288,"ROUTE_NUMBER":"Os 8513 ","DELAY":120,"Current_Stop":"Kysak","From":"Prešov","Destination":"Košice","Direction":40,"Current_Time":1615284654525,"Current_Day":9,"Current_Hour":11,"Current_Minutes":10,"Current_Seconds":54},{"lon":21.24601,"lat":48.7958,"ROUTE_NUMBER":"Os 7814 ","DELAY":0,"Current_Stop":"Kostoľany nad Hornádom","From":"Košice","Destination":"Poprad-Tatry","Direction":9,"Current_Time":1615285780482,"Current_Day":9,"Current_Hour":11,"Current_Minutes":29,"Current_Seconds":40},{"lon":21.67169,"lat":48.57716,"ROUTE_NUMBER":"Os 9015 ","DELAY":0,"Current_Stop":"Úpor","From":"Michaľany","Destination":"Trebišov","Direction":63,"Current_Time":1615285914731,"Current_Day":9,"Current_Hour":11,"Current_Minutes":31,"Current_Seconds":54},{"lon":20.52637,"lat":49.25529,"ROUTE_NUMBER":"Os 8316 ","DELAY":300,"Current_Stop":"Podolínec","From":"Stará Ľubovňa","Destination":"Poprad-Tatry","Direction":22,"Current_Time":1615286274796,"Current_Day":9,"Current_Hour":11,"Current_Minutes":37,"Current_Seconds":54},{"lon":20.88565,"lat":48.82017,"ROUTE_NUMBER":"Os 7415 ","DELAY":0,"Current_Stop":"Prakovce","From":"Nálepkovo","Destination":"Margecany","Direction":7,"Current_Time":1615285674691,"Current_Day":9,"Current_Hour":11,"Current_Minutes":27,"Current_Seconds":54},{"lon":21.26712,"lat":49.01659,"ROUTE_NUMBER":"Os 9212 ","DELAY":0,"Current_Stop":"Šarišské Lúky","From":"Bardejov","Destination":"Prešov","Direction":16,"Current_Time":1615285974752,"Current_Day":9,"Current_Hour":11,"Current_Minutes":32,"Current_Seconds":54},{"lon":21.92189,"lat":49.13492,"ROUTE_NUMBER":"Os 8915 ","DELAY":0,"Current_Stop":"Radvaň nad Laborcom","From":"Humenné","Destination":"Medzilaborce mesto","Direction":13,"Current_Time":1615285554647,"Current_Day":9,"Current_Hour":11,"Current_Minutes":25,"Current_Seconds":54},{"lon":21.32044,"lat":49.04386,"ROUTE_NUMBER":"Os 9212 ","DELAY":0,"Current_Stop":"Kapušany pri Prešove","From":"Bardejov","Destination":"Prešov","Direction":16,"Current_Time":1615285494671,"Current_Day":9,"Current_Hour":11,"Current_Minutes":24,"Current_Seconds":54},{"lon":21.42887,"lat":48.67311,"ROUTE_NUMBER":"Os 8814 ","DELAY":300,"Current_Stop":"Ruskov","From":"Čierna nad Tisou","Destination":"Košice","Direction":25,"Current_Time":1615285674691,"Current_Day":9,"Current_Hour":11,"Current_Minutes":27,"Current_Seconds":54},{"lon":21.22393,"lat":48.85288,"ROUTE_NUMBER":"Os 8514 ","DELAY":240,"Current_Stop":"Kysak","From":"Košice","Destination":"Lipany","Direction":21,"Current_Time":1615287444975,"Current_Day":9,"Current_Hour":11,"Current_Minutes":57,"Current_Seconds":24},{"lon":21.22393,"lat":48.85288,"ROUTE_NUMBER":"Os 8514 ","DELAY":240,"Current_Stop":"Kysak","From":"Košice","Destination":"Lipany","Direction":21,"Current_Time":1615287459915,"Current_Day":9,"Current_Hour":11,"Current_Minutes":57,"Current_Seconds":39},{"lon":21.22393,"lat":48.85288,"ROUTE_NUMBER":"R 601 TATRAN","DELAY":300,"Current_Stop":"Kysak","From":"Bratislava hlavná stanica","Destination":"Košice","Direction":20,"Current_Time":1615287399951,"Current_Day":9,"Current_Hour":11,"Current_Minutes":56,"Current_Seconds":39},{"lon":21.22393,"lat":48.85288,"ROUTE_NUMBER":"Os 8514 ","DELAY":240,"Current_Stop":"Kysak","From":"Košice","Destination":"Lipany","Direction":21,"Current_Time":1615287474919,"Current_Day":9,"Current_Hour":11,"Current_Minutes":57,"Current_Seconds":54},{"lon":21.75188,"lat":48.85705,"ROUTE_NUMBER":"Os 9115 ","DELAY":0,"Current_Stop":"Nižný Hrabovec","From":"Prešov","Destination":"Humenné","Direction":12,"Current_Time":1615287474919,"Current_Day":9,"Current_Hour":11,"Current_Minutes":57,"Current_Seconds":54},{"lon":21.01324,"lat":48.89469,"ROUTE_NUMBER":"Os 7814 ","DELAY":60,"Current_Stop":"Margecany","From":"Košice","Destination":"Poprad-Tatry","Direction":9,"Current_Time":1615287504929,"Current_Day":9,"Current_Hour":11,"Current_Minutes":58,"Current_Seconds":24},{"lon":21.01324,"lat":48.89469,"ROUTE_NUMBER":"Os 7814 ","DELAY":60,"Current_Stop":"Margecany","From":"Košice","Destination":"Poprad-Tatry","Direction":9,"Current_Time":1615287519901,"Current_Day":9,"Current_Hour":11,"Current_Minutes":58,"Current_Seconds":39},{"lon":21.241086,"lat":48.873332,"ROUTE_NUMBER":"Os 8515 ","DELAY":120,"Current_Stop":"Ličartovce","From":"Lipany","Destination":"Košice","Direction":18,"Current_Time":1615287805551,"Current_Day":9,"Current_Hour":12,"Current_Minutes":3,"Current_Seconds":25},{"lon":21.241086,"lat":48.873332,"ROUTE_NUMBER":"Os 8515 ","DELAY":120,"Current_Stop":"Ličartovce","From":"Lipany","Destination":"Košice","Direction":18,"Current_Time":1615287819959,"Current_Day":9,"Current_Hour":12,"Current_Minutes":3,"Current_Seconds":39},{"lon":21.22393,"lat":48.85288,"ROUTE_NUMBER":"R 608 TATRAN","DELAY":600,"Current_Stop":"Kysak","From":"Košice","Destination":"Bratislava hlavná stanica","Direction":23,"Current_Time":1615288855232,"Current_Day":9,"Current_Hour":12,"Current_Minutes":20,"Current_Seconds":55},{"lon":21.24601,"lat":48.7958,"ROUTE_NUMBER":"Os 7816 ","DELAY":0,"Current_Stop":"Kostoľany nad Hornádom","From":"Košice","Destination":"Poprad-Tatry","Direction":9,"Current_Time":1615289320371,"Current_Day":9,"Current_Hour":12,"Current_Minutes":28,"Current_Seconds":40},{"lon":20.63426,"lat":48.91024,"ROUTE_NUMBER":"Os 7814 ","DELAY":60,"Current_Stop":"Markušovce","From":"Košice","Destination":"Poprad-Tatry","Direction":9,"Current_Time":1615289425352,"Current_Day":9,"Current_Hour":12,"Current_Minutes":30,"Current_Seconds":25},{"lon":21.22393,"lat":48.85288,"ROUTE_NUMBER":"Os 7817 ","DELAY":180,"Current_Stop":"Kysak","From":"Poprad-Tatry","Destination":"Košice","Direction":17,"Current_Time":1615289860487,"Current_Day":9,"Current_Hour":12,"Current_Minutes":37,"Current_Seconds":40},{"lon":21.75188,"lat":48.85705,"ROUTE_NUMBER":"Os 9116 ","DELAY":0,"Current_Stop":"Nižný Hrabovec","From":"Humenné","Destination":"Prešov","Direction":3,"Current_Time":1615287715029,"Current_Day":9,"Current_Hour":12,"Current_Minutes":1,"Current_Seconds":55},{"lon":21.245198,"lat":48.911472,"ROUTE_NUMBER":"Os 8515 ","DELAY":120,"Current_Stop":"Drienovská Nová Ves","From":"Lipany","Destination":"Košice","Direction":18,"Current_Time":1615287789948,"Current_Day":9,"Current_Hour":12,"Current_Minutes":3,"Current_Seconds":9},{"lon":21.22393,"lat":48.85288,"ROUTE_NUMBER":"Os 8515 ","DELAY":240,"Current_Stop":"Kysak","From":"Lipany","Destination":"Košice","Direction":18,"Current_Time":1615288345109,"Current_Day":9,"Current_Hour":12,"Current_Minutes":12,"Current_Seconds":25},{"lon":21.24601,"lat":48.7958,"ROUTE_NUMBER":"Os 7816 ","DELAY":0,"Current_Stop":"Kostoľany nad Hornádom","From":"Košice","Destination":"Poprad-Tatry","Direction":9,"Current_Time":1615289335324,"Current_Day":9,"Current_Hour":12,"Current_Minutes":28,"Current_Seconds":55},{"lon":21.133704,"lat":48.87403,"ROUTE_NUMBER":"Os 7817 ","DELAY":300,"Current_Stop":"Malá Lodina","From":"Poprad-Tatry","Destination":"Košice","Direction":17,"Current_Time":1615289335324,"Current_Day":9,"Current_Hour":12,"Current_Minutes":28,"Current_Seconds":55},{"lon":21.22393,"lat":48.85288,"ROUTE_NUMBER":"Os 7816 ","DELAY":420,"Current_Stop":"Kysak","From":"Košice","Destination":"Poprad-Tatry","Direction":9,"Current_Time":1615290115537,"Current_Day":9,"Current_Hour":12,"Current_Minutes":41,"Current_Seconds":55},{"lon":21.241086,"lat":48.873332,"ROUTE_NUMBER":"Os 8515 ","DELAY":120,"Current_Stop":"Ličartovce","From":"Lipany","Destination":"Košice","Direction":18,"Current_Time":1615287834963,"Current_Day":9,"Current_Hour":12,"Current_Minutes":3,"Current_Seconds":54},{"lon":20.471821,"lat":49.184593,"ROUTE_NUMBER":"Os 8315 ","DELAY":0,"Current_Stop":"Spišská Belá zastávka","From":"Poprad-Tatry","Destination":"Stará Ľubovňa","Direction":2,"Current_Time":1615288705225,"Current_Day":9,"Current_Hour":12,"Current_Minutes":18,"Current_Seconds":25},{"lon":21.249126,"lat":48.983379,"ROUTE_NUMBER":"Os 8514 ","DELAY":180,"Current_Stop":"Prešov","From":"Košice","Destination":"Lipany","Direction":21,"Current_Time":1615288855232,"Current_Day":9,"Current_Hour":12,"Current_Minutes":20,"Current_Seconds":55},{"lon":20.56151,"lat":48.95041,"ROUTE_NUMBER":"Os 7814 ","DELAY":0,"Current_Stop":"Spišská Nová Ves","From":"Košice","Destination":"Poprad-Tatry","Direction":9,"Current_Time":1615289905536,"Current_Day":9,"Current_Hour":12,"Current_Minutes":38,"Current_Seconds":25},{"lon":21.42887,"lat":48.67311,"ROUTE_NUMBER":"Os 8817 ","DELAY":0,"Current_Stop":"Ruskov","From":"Košice","Destination":"Čierna nad Tisou","Direction":8,"Current_Time":1615290175566,"Current_Day":9,"Current_Hour":12,"Current_Minutes":42,"Current_Seconds":55},{"lon":21.24601,"lat":48.7958,"ROUTE_NUMBER":"Os 8516 ","DELAY":0,"Current_Stop":"Kostoľany nad Hornádom","From":"Košice","Destination":"Lipany","Direction":21,"Current_Time":1615290415601,"Current_Day":9,"Current_Hour":12,"Current_Minutes":46,"Current_Seconds":55},{"lon":21.245198,"lat":48.911472,"ROUTE_NUMBER":"Os 8515 ","DELAY":420,"Current_Stop":"Drienovská Nová Ves","From":"Lipany","Destination":"Košice","Direction":18,"Current_Time":1615287654928,"Current_Day":9,"Current_Hour":12,"Current_Minutes":0,"Current_Seconds":54},{"lon":20.56151,"lat":48.95041,"ROUTE_NUMBER":"Os 7814 ","DELAY":0,"Current_Stop":"Spišská Nová Ves","From":"Košice","Destination":"Poprad-Tatry","Direction":9,"Current_Time":1615289920502,"Current_Day":9,"Current_Hour":12,"Current_Minutes":38,"Current_Seconds":40},{"lon":21.01324,"lat":48.89469,"ROUTE_NUMBER":"Os 7817 ","DELAY":60,"Current_Stop":"Margecany","From":"Poprad-Tatry","Destination":"Košice","Direction":17,"Current_Time":1615288375124,"Current_Day":9,"Current_Hour":12,"Current_Minutes":12,"Current_Seconds":55},{"lon":21.91384,"lat":48.39032,"ROUTE_NUMBER":"Os 8861 ","DELAY":60,"Current_Stop":"Veľký Horeš","From":"Čierna nad Tisou","Destination":"Košice","Direction":25,"Current_Time":1615288915256,"Current_Day":9,"Current_Hour":12,"Current_Minutes":21,"Current_Seconds":55},{"lon":21.24601,"lat":48.7958,"ROUTE_NUMBER":"Os 7816 ","DELAY":0,"Current_Stop":"Kostoľany nad Hornádom","From":"Košice","Destination":"Poprad-Tatry","Direction":9,"Current_Time":1615289305322,"Current_Day":9,"Current_Hour":12,"Current_Minutes":28,"Current_Seconds":25},{"lon":21.90506,"lat":49.26186,"ROUTE_NUMBER":"Os 8916 ","DELAY":0,"Current_Stop":"Medzilaborce","From":"Medzilaborce mesto","Destination":"Humenné","Direction":1,"Current_Time":1615289335324,"Current_Day":9,"Current_Hour":12,"Current_Minutes":28,"Current_Seconds":55},{"lon":21.01324,"lat":48.89469,"ROUTE_NUMBER":"Os 7450 ","DELAY":300,"Current_Stop":"Margecany","From":"Margecany","Destination":"Mlynky","Direction":24,"Current_Time":1615289695432,"Current_Day":9,"Current_Hour":12,"Current_Minutes":34,"Current_Seconds":55},{"lon":21.01324,"lat":48.89469,"ROUTE_NUMBER":"R 608 TATRAN","DELAY":480,"Current_Stop":"Margecany","From":"Košice","Destination":"Bratislava hlavná stanica","Direction":23,"Current_Time":1615289755457,"Current_Day":9,"Current_Hour":12,"Current_Minutes":35,"Current_Seconds":55},{"lon":21.249126,"lat":48.983379,"ROUTE_NUMBER":"Os 8517 ","DELAY":60,"Current_Stop":"Prešov","From":"Lipany","Destination":"Košice","Direction":18,"Current_Time":1615290235567,"Current_Day":9,"Current_Hour":12,"Current_Minutes":43,"Current_Seconds":55},{"lon":21.24601,"lat":48.7958,"ROUTE_NUMBER":"R 608 TATRAN","DELAY":120,"Current_Stop":"Kostoľany nad Hornádom","From":"Košice","Destination":"Bratislava hlavná stanica","Direction":23,"Current_Time":1615288075034,"Current_Day":9,"Current_Hour":12,"Current_Minutes":7,"Current_Seconds":55},{"lon":21.22393,"lat":48.85288,"ROUTE_NUMBER":"Os 8515 ","DELAY":240,"Current_Stop":"Kysak","From":"Lipany","Destination":"Košice","Direction":18,"Current_Time":1615288360168,"Current_Day":9,"Current_Hour":12,"Current_Minutes":12,"Current_Seconds":40},{"lon":21.00288,"lat":48.60123,"ROUTE_NUMBER":"R 931 GEMERAN","DELAY":0,"Current_Stop":"Moldava nad Bodvou","From":"Zvolen osobná stanica","Destination":"Košice","Direction":19,"Current_Time":1615288435123,"Current_Day":9,"Current_Hour":12,"Current_Minutes":13,"Current_Seconds":55},{"lon":20.471821,"lat":49.184593,"ROUTE_NUMBER":"Os 8315 ","DELAY":0,"Current_Stop":"Spišská Belá zastávka","From":"Poprad-Tatry","Destination":"Stará Ľubovňa","Direction":2,"Current_Time":1615288720188,"Current_Day":9,"Current_Hour":12,"Current_Minutes":18,"Current_Seconds":40},{"lon":20.471821,"lat":49.184593,"ROUTE_NUMBER":"Os 8315 ","DELAY":0,"Current_Stop":"Spišská Belá zastávka","From":"Poprad-Tatry","Destination":"Stará Ľubovňa","Direction":2,"Current_Time":1615288735222,"Current_Day":9,"Current_Hour":12,"Current_Minutes":18,"Current_Seconds":55},{"lon":21.249126,"lat":48.983379,"ROUTE_NUMBER":"Os 8514 ","DELAY":180,"Current_Stop":"Prešov","From":"Košice","Destination":"Lipany","Direction":21,"Current_Time":1615288825240,"Current_Day":9,"Current_Hour":12,"Current_Minutes":20,"Current_Seconds":25},{"lon":21.249126,"lat":48.983379,"ROUTE_NUMBER":"Os 8514 ","DELAY":180,"Current_Stop":"Prešov","From":"Košice","Destination":"Lipany","Direction":21,"Current_Time":1615288840253,"Current_Day":9,"Current_Hour":12,"Current_Minutes":20,"Current_Seconds":40},{"lon":20.63426,"lat":48.91024,"ROUTE_NUMBER":"Os 7814 ","DELAY":60,"Current_Stop":"Markušovce","From":"Košice","Destination":"Poprad-Tatry","Direction":9,"Current_Time":1615289441400,"Current_Day":9,"Current_Hour":12,"Current_Minutes":30,"Current_Seconds":41},{"lon":21.22393,"lat":48.85288,"ROUTE_NUMBER":"Os 7817 ","DELAY":180,"Current_Stop":"Kysak","From":"Poprad-Tatry","Destination":"Košice","Direction":17,"Current_Time":1615289875494,"Current_Day":9,"Current_Hour":12,"Current_Minutes":37,"Current_Seconds":55},{"lon":21.24601,"lat":48.7958,"ROUTE_NUMBER":"Os 8516 ","DELAY":0,"Current_Stop":"Kostoľany nad Hornádom","From":"Košice","Destination":"Lipany","Direction":21,"Current_Time":1615290385583,"Current_Day":9,"Current_Hour":12,"Current_Minutes":46,"Current_Seconds":25},{"lon":21.22393,"lat":48.85288,"ROUTE_NUMBER":"Os 8515 ","DELAY":240,"Current_Stop":"Kysak","From":"Lipany","Destination":"Košice","Direction":18,"Current_Time":1615288375124,"Current_Day":9,"Current_Hour":12,"Current_Minutes":12,"Current_Seconds":55},{"lon":21.22393,"lat":48.85288,"ROUTE_NUMBER":"Os 7817 ","DELAY":180,"Current_Stop":"Kysak","From":"Poprad-Tatry","Destination":"Košice","Direction":17,"Current_Time":1615289845542,"Current_Day":9,"Current_Hour":12,"Current_Minutes":37,"Current_Seconds":25},{"lon":20.56151,"lat":48.95041,"ROUTE_NUMBER":"Os 7814 ","DELAY":0,"Current_Stop":"Spišská Nová Ves","From":"Košice","Destination":"Poprad-Tatry","Direction":9,"Current_Time":1615289935558,"Current_Day":9,"Current_Hour":12,"Current_Minutes":38,"Current_Seconds":55},{"lon":21.82483,"lat":48.86766,"ROUTE_NUMBER":"EN 442 Slovakia","DELAY":0,"Current_Stop":"Strážske","From":"Humenné","Destination":"Žilina","Direction":50,"Current_Time":1615228826287,"Current_Day":8,"Current_Hour":19,"Current_Minutes":40,"Current_Seconds":26},{"lon":21.75188,"lat":48.85705,"ROUTE_NUMBER":"Os 9132 ","DELAY":0,"Current_Stop":"Nižný Hrabovec","From":"Humenné","Destination":"Prešov","Direction":3,"Current_Time":1615230086298,"Current_Day":8,"Current_Hour":20,"Current_Minutes":1,"Current_Seconds":26},{"lon":21.241086,"lat":48.873332,"ROUTE_NUMBER":"Os 8530 ","DELAY":300,"Current_Stop":"Ličartovce","From":"Košice","Destination":"Lipany","Direction":21,"Current_Time":1615230311330,"Current_Day":8,"Current_Hour":20,"Current_Minutes":5,"Current_Seconds":11},{"lon":21.249126,"lat":48.983379,"ROUTE_NUMBER":"Os 8530 ","DELAY":180,"Current_Stop":"Prešov","From":"Košice","Destination":"Lipany","Direction":21,"Current_Time":1615231241324,"Current_Day":8,"Current_Hour":20,"Current_Minutes":20,"Current_Seconds":41},{"lon":21.0886,"lat":49.10324,"ROUTE_NUMBER":"Os 8530 ","DELAY":60,"Current_Stop":"Sabinov","From":"Košice","Destination":"Lipany","Direction":21,"Current_Time":1615232891306,"Current_Day":8,"Current_Hour":20,"Current_Minutes":48,"Current_Seconds":11},{"lon":22.05519,"lat":48.95489,"ROUTE_NUMBER":"Os 9435 ","DELAY":0,"Current_Stop":"Dlhé nad Cirochou","From":"Humenné","Destination":"Stakčín","Direction":6,"Current_Time":1615233821311,"Current_Day":8,"Current_Hour":21,"Current_Minutes":3,"Current_Seconds":41},{"lon":21.95465,"lat":49.05145,"ROUTE_NUMBER":"Os 8932 ","DELAY":0,"Current_Stop":"Koškovce","From":"Medzilaborce mesto","Destination":"Humenné","Direction":1,"Current_Time":1615233881311,"Current_Day":8,"Current_Hour":21,"Current_Minutes":4,"Current_Seconds":41},{"lon":20.63011,"lat":48.83833,"ROUTE_NUMBER":"Os 7454 ","DELAY":0,"Current_Stop":"Nálepkovo","From":"Margecany","Destination":"Dobšinská Ľadová Jaskyňa","Direction":64,"Current_Time":1615234481322,"Current_Day":8,"Current_Hour":21,"Current_Minutes":14,"Current_Seconds":41},{"lon":21.22393,"lat":48.85288,"ROUTE_NUMBER":"R 800 GEMERAN POĽANA","DELAY":60,"Current_Stop":"Kysak","From":"Prešov","Destination":"Bratislava-Nové Mesto","Direction":53,"Current_Time":1615235591325,"Current_Day":8,"Current_Hour":21,"Current_Minutes":33,"Current_Seconds":11},{"lon":21.01324,"lat":48.89469,"ROUTE_NUMBER":"R 611 TATRAN","DELAY":60,"Current_Stop":"Margecany","From":"Bratislava hlavná stanica","Destination":"Košice","Direction":20,"Current_Time":1615235876375,"Current_Day":8,"Current_Hour":21,"Current_Minutes":37,"Current_Seconds":56},{"lon":21.56926,"lat":48.98993,"ROUTE_NUMBER":"Os 9135 ","DELAY":0,"Current_Stop":"Čierne nad Topľou","From":"Prešov","Destination":"Humenné","Direction":12,"Current_Time":1615236641372,"Current_Day":8,"Current_Hour":21,"Current_Minutes":50,"Current_Seconds":41},{"lon":21.241086,"lat":48.873332,"ROUTE_NUMBER":"Os 8533 ","DELAY":60,"Current_Stop":"Ličartovce","From":"Lipany","Destination":"Košice","Direction":18,"Current_Time":1615237256447,"Current_Day":8,"Current_Hour":22,"Current_Minutes":0,"Current_Seconds":56},{"lon":21.83458,"lat":48.67913,"ROUTE_NUMBER":"REX 1913 ","DELAY":540,"Current_Stop":"Bánovce nad Ondavou","From":"Košice","Destination":"Humenné","Direction":15,"Current_Time":1615237856587,"Current_Day":8,"Current_Hour":22,"Current_Minutes":10,"Current_Seconds":56},{"lon":21.00288,"lat":48.60123,"ROUTE_NUMBER":"R 815 GEMERAN","DELAY":0,"Current_Stop":"Moldava nad Bodvou","From":"Bratislava hlavná stanica","Destination":"Košice","Direction":20,"Current_Time":1615237961637,"Current_Day":8,"Current_Hour":22,"Current_Minutes":12,"Current_Seconds":41},{"lon":21.22393,"lat":48.85288,"ROUTE_NUMBER":"EN 442 Slovakia","DELAY":240,"Current_Stop":"Kysak","From":"Humenné","Destination":"Žilina","Direction":50,"Current_Time":1615238096652,"Current_Day":8,"Current_Hour":22,"Current_Minutes":14,"Current_Seconds":56},{"lon":21.17186,"lat":48.59126,"ROUTE_NUMBER":"R 815 GEMERAN","DELAY":0,"Current_Stop":"Veľká Ida","From":"Bratislava hlavná stanica","Destination":"Košice","Direction":20,"Current_Time":1615238486706,"Current_Day":8,"Current_Hour":22,"Current_Minutes":21,"Current_Seconds":26},{"lon":21.17186,"lat":48.59126,"ROUTE_NUMBER":"R 815 GEMERAN","DELAY":0,"Current_Stop":"Veľká Ida","From":"Bratislava hlavná stanica","Destination":"Košice","Direction":20,"Current_Time":1615238501702,"Current_Day":8,"Current_Hour":22,"Current_Minutes":21,"Current_Seconds":41},{"lon":21.00288,"lat":48.60123,"ROUTE_NUMBER":"R 800 GEMERAN POĽANA","DELAY":-60,"Current_Stop":"Moldava nad Bodvou","From":"Prešov","Destination":"Bratislava-Nové Mesto","Direction":53,"Current_Time":1615239206885,"Current_Day":8,"Current_Hour":22,"Current_Minutes":33,"Current_Seconds":26},{"lon":21.00288,"lat":48.60123,"ROUTE_NUMBER":"R 800 GEMERAN POĽANA","DELAY":-60,"Current_Stop":"Moldava nad Bodvou","From":"Prešov","Destination":"Bratislava-Nové Mesto","Direction":53,"Current_Time":1615239221885,"Current_Day":8,"Current_Hour":22,"Current_Minutes":33,"Current_Seconds":41},{"lon":21.22393,"lat":48.85288,"ROUTE_NUMBER":"Os 8536 ","DELAY":120,"Current_Stop":"Kysak","From":"Košice","Destination":"Lipany","Direction":21,"Current_Time":1615239446918,"Current_Day":8,"Current_Hour":22,"Current_Minutes":37,"Current_Seconds":26},{"lon":22.05519,"lat":48.95489,"ROUTE_NUMBER":"Os 9438 ","DELAY":0,"Current_Stop":"Dlhé nad Cirochou","From":"Stakčín","Destination":"Humenné","Direction":5,"Current_Time":1615241247458,"Current_Day":8,"Current_Hour":23,"Current_Minutes":7,"Current_Seconds":27},{"lon":21.26712,"lat":49.01659,"ROUTE_NUMBER":"Os 9141 ","DELAY":0,"Current_Stop":"Šarišské Lúky","From":"Prešov","Destination":"Vranov nad Topľou","Direction":60,"Current_Time":1615241787685,"Current_Day":8,"Current_Hour":23,"Current_Minutes":16,"Current_Seconds":27},{"lon":20.88621,"lat":48.92171,"ROUTE_NUMBER":"Os 7873 ","DELAY":0,"Current_Stop":"Krompachy","From":"Svit","Destination":"Margecany","Direction":61,"Current_Time":1615244278373,"Current_Day":8,"Current_Hour":23,"Current_Minutes":57,"Current_Seconds":58},{"lon":21.0886,"lat":49.10324,"ROUTE_NUMBER":"Os 8528 ","DELAY":120,"Current_Stop":"Sabinov","From":"Košice","Destination":"Lipany","Direction":21,"Current_Time":1615229291300,"Current_Day":8,"Current_Hour":19,"Current_Minutes":48,"Current_Seconds":11},{"lon":21.90506,"lat":49.26186,"ROUTE_NUMBER":"Os 8931 ","DELAY":0,"Current_Stop":"Medzilaborce","From":"Humenné","Destination":"Medzilaborce mesto","Direction":13,"Current_Time":1615229291300,"Current_Day":8,"Current_Hour":19,"Current_Minutes":48,"Current_Seconds":11},{"lon":21.37178,"lat":48.62929,"ROUTE_NUMBER":"Os 8830 ","DELAY":0,"Current_Stop":"Nižná Myšľa","From":"Čierna nad Tisou","Destination":"Košice","Direction":25,"Current_Time":1615229441324,"Current_Day":8,"Current_Hour":19,"Current_Minutes":50,"Current_Seconds":41},{"lon":21.89858,"lat":48.75074,"ROUTE_NUMBER":"EN 442 Slovakia","DELAY":-60,"Current_Stop":"Michalovce","From":"Humenné","Destination":"Žilina","Direction":50,"Current_Time":1615229502317,"Current_Day":8,"Current_Hour":19,"Current_Minutes":51,"Current_Seconds":42},{"lon":21.241086,"lat":48.873332,"ROUTE_NUMBER":"Os 8530 ","DELAY":300,"Current_Stop":"Ličartovce","From":"Košice","Destination":"Lipany","Direction":21,"Current_Time":1615230341337,"Current_Day":8,"Current_Hour":20,"Current_Minutes":5,"Current_Seconds":41},{"lon":21.241086,"lat":48.873332,"ROUTE_NUMBER":"Os 8530 ","DELAY":300,"Current_Stop":"Ličartovce","From":"Košice","Destination":"Lipany","Direction":21,"Current_Time":1615230356616,"Current_Day":8,"Current_Hour":20,"Current_Minutes":5,"Current_Seconds":56},{"lon":21.83458,"lat":48.67913,"ROUTE_NUMBER":"EN 442 Slovakia","DELAY":300,"Current_Stop":"Bánovce nad Ondavou","From":"Humenné","Destination":"Žilina","Direction":50,"Current_Time":1615230521311,"Current_Day":8,"Current_Hour":20,"Current_Minutes":8,"Current_Seconds":41},{"lon":21.6262,"lat":48.52172,"ROUTE_NUMBER":"Os 8831 ","DELAY":0,"Current_Stop":"Michaľany","From":"Košice","Destination":"Čierna nad Tisou","Direction":8,"Current_Time":1615230836297,"Current_Day":8,"Current_Hour":20,"Current_Minutes":13,"Current_Seconds":56},{"lon":21.01324,"lat":48.89469,"ROUTE_NUMBER":"Os 7833 ","DELAY":480,"Current_Stop":"Margecany","From":"Poprad-Tatry","Destination":"Košice","Direction":17,"Current_Time":1615231046292,"Current_Day":8,"Current_Hour":20,"Current_Minutes":17,"Current_Seconds":26},{"lon":21.249126,"lat":48.983379,"ROUTE_NUMBER":"Os 8530 ","DELAY":180,"Current_Stop":"Prešov","From":"Košice","Destination":"Lipany","Direction":21,"Current_Time":1615231256314,"Current_Day":8,"Current_Hour":20,"Current_Minutes":20,"Current_Seconds":56},{"lon":21.90506,"lat":49.26186,"ROUTE_NUMBER":"Os 8932 ","DELAY":0,"Current_Stop":"Medzilaborce","From":"Medzilaborce mesto","Destination":"Humenné","Direction":1,"Current_Time":1615231331323,"Current_Day":8,"Current_Hour":20,"Current_Minutes":22,"Current_Seconds":11},{"lon":21.90506,"lat":49.26186,"ROUTE_NUMBER":"Os 8932 ","DELAY":0,"Current_Stop":"Medzilaborce","From":"Medzilaborce mesto","Destination":"Humenné","Direction":1,"Current_Time":1615231361293,"Current_Day":8,"Current_Hour":20,"Current_Minutes":22,"Current_Seconds":41},{"lon":21.57934,"lat":48.58169,"ROUTE_NUMBER":"Os 8834 ","DELAY":0,"Current_Stop":"Kuzmice","From":"Čierna nad Tisou","Destination":"Košice","Direction":25,"Current_Time":1615233386321,"Current_Day":8,"Current_Hour":20,"Current_Minutes":56,"Current_Seconds":26},{"lon":21.42887,"lat":48.67311,"ROUTE_NUMBER":"Os 8834 ","DELAY":0,"Current_Stop":"Ruskov","From":"Čierna nad Tisou","Destination":"Košice","Direction":25,"Current_Time":1615235201326,"Current_Day":8,"Current_Hour":21,"Current_Minutes":26,"Current_Seconds":41},{"lon":21.40544,"lat":49.04906,"ROUTE_NUMBER":"Os 9135 ","DELAY":0,"Current_Stop":"Lipníky","From":"Prešov","Destination":"Humenné","Direction":12,"Current_Time":1615235501351,"Current_Day":8,"Current_Hour":21,"Current_Minutes":31,"Current_Seconds":41},{"lon":21.01324,"lat":48.89469,"ROUTE_NUMBER":"R 611 TATRAN","DELAY":60,"Current_Stop":"Margecany","From":"Bratislava hlavná stanica","Destination":"Košice","Direction":20,"Current_Time":1615235861414,"Current_Day":8,"Current_Hour":21,"Current_Minutes":37,"Current_Seconds":41},{"lon":21.29588,"lat":48.67004,"ROUTE_NUMBER":"Os 8834 ","DELAY":0,"Current_Stop":"Krásna nad Hornádom","From":"Čierna nad Tisou","Destination":"Košice","Direction":25,"Current_Time":1615236236358,"Current_Day":8,"Current_Hour":21,"Current_Minutes":43,"Current_Seconds":56},{"lon":21.22393,"lat":48.85288,"ROUTE_NUMBER":"Os 7834 ","DELAY":120,"Current_Stop":"Kysak","From":"Košice","Destination":"Spišská Nová Ves","Direction":55,"Current_Time":1615236536339,"Current_Day":8,"Current_Hour":21,"Current_Minutes":48,"Current_Seconds":56},{"lon":21.241086,"lat":48.873332,"ROUTE_NUMBER":"Os 8533 ","DELAY":60,"Current_Stop":"Ličartovce","From":"Lipany","Destination":"Košice","Direction":18,"Current_Time":1615237211442,"Current_Day":8,"Current_Hour":22,"Current_Minutes":0,"Current_Seconds":11},{"lon":21.241086,"lat":48.873332,"ROUTE_NUMBER":"Os 8533 ","DELAY":60,"Current_Stop":"Ličartovce","From":"Lipany","Destination":"Košice","Direction":18,"Current_Time":1615237226440,"Current_Day":8,"Current_Hour":22,"Current_Minutes":0,"Current_Seconds":26},{"lon":21.241086,"lat":48.873332,"ROUTE_NUMBER":"Os 8554 ","DELAY":0,"Current_Stop":"Ličartovce","From":"Kysak","Destination":"Prešov","Direction":56,"Current_Time":1615237226440,"Current_Day":8,"Current_Hour":22,"Current_Minutes":0,"Current_Seconds":26},{"lon":21.241086,"lat":48.873332,"ROUTE_NUMBER":"Os 8533 ","DELAY":60,"Current_Stop":"Ličartovce","From":"Lipany","Destination":"Košice","Direction":18,"Current_Time":1615237241443,"Current_Day":8,"Current_Hour":22,"Current_Minutes":0,"Current_Seconds":41},{"lon":21.89858,"lat":48.75074,"ROUTE_NUMBER":"REX 1913 ","DELAY":0,"Current_Stop":"Michalovce","From":"Košice","Destination":"Humenné","Direction":15,"Current_Time":1615237976623,"Current_Day":8,"Current_Hour":22,"Current_Minutes":12,"Current_Seconds":56},{"lon":21.89858,"lat":48.75074,"ROUTE_NUMBER":"R 614 TATRAN ZEMPLÍN","DELAY":0,"Current_Stop":"Michalovce","From":"Humenné","Destination":"Bratislava hlavná stanica","Direction":54,"Current_Time":1615238337181,"Current_Day":8,"Current_Hour":22,"Current_Minutes":18,"Current_Seconds":57},{"lon":21.83458,"lat":48.67913,"ROUTE_NUMBER":"R 614 TATRAN ZEMPLÍN","DELAY":360,"Current_Stop":"Bánovce nad Ondavou","From":"Humenné","Destination":"Bratislava hlavná stanica","Direction":54,"Current_Time":1615239176880,"Current_Day":8,"Current_Hour":22,"Current_Minutes":32,"Current_Seconds":56},{"lon":21.241086,"lat":48.873332,"ROUTE_NUMBER":"Os 8536 ","DELAY":0,"Current_Stop":"Ličartovce","From":"Košice","Destination":"Lipany","Direction":21,"Current_Time":1615239987097,"Current_Day":8,"Current_Hour":22,"Current_Minutes":46,"Current_Seconds":27},{"lon":20.52637,"lat":49.25529,"ROUTE_NUMBER":"Os 8336 ","DELAY":240,"Current_Stop":"Podolínec","From":"Stará Ľubovňa","Destination":"Poprad-Tatry","Direction":22,"Current_Time":1615240347234,"Current_Day":8,"Current_Hour":22,"Current_Minutes":52,"Current_Seconds":27},{"lon":20.52637,"lat":49.25529,"ROUTE_NUMBER":"Os 8336 ","DELAY":240,"Current_Stop":"Podolínec","From":"Stará Ľubovňa","Destination":"Poprad-Tatry","Direction":22,"Current_Time":1615240362244,"Current_Day":8,"Current_Hour":22,"Current_Minutes":52,"Current_Seconds":42},{"lon":20.52637,"lat":49.25529,"ROUTE_NUMBER":"Os 8337 ","DELAY":0,"Current_Stop":"Podolínec","From":"Poprad-Tatry","Destination":"Stará Ľubovňa","Direction":2,"Current_Time":1615240437257,"Current_Day":8,"Current_Hour":22,"Current_Minutes":53,"Current_Seconds":57},{"lon":21.249126,"lat":48.983379,"ROUTE_NUMBER":"Os 8536 ","DELAY":0,"Current_Stop":"Prešov","From":"Košice","Destination":"Lipany","Direction":21,"Current_Time":1615240947383,"Current_Day":8,"Current_Hour":23,"Current_Minutes":2,"Current_Seconds":27},{"lon":21.75188,"lat":48.85705,"ROUTE_NUMBER":"Os 9131 ","DELAY":0,"Current_Stop":"Nižný Hrabovec","From":"Prešov","Destination":"Humenné","Direction":12,"Current_Time":1615229921360,"Current_Day":8,"Current_Hour":19,"Current_Minutes":58,"Current_Seconds":41},{"lon":21.75188,"lat":48.85705,"ROUTE_NUMBER":"Os 9131 ","DELAY":0,"Current_Stop":"Nižný Hrabovec","From":"Prešov","Destination":"Humenné","Direction":12,"Current_Time":1615229936286,"Current_Day":8,"Current_Hour":19,"Current_Minutes":58,"Current_Seconds":56},{"lon":21.22393,"lat":48.85288,"ROUTE_NUMBER":"Os 8530 ","DELAY":360,"Current_Stop":"Kysak","From":"Košice","Destination":"Lipany","Direction":21,"Current_Time":1615229966283,"Current_Day":8,"Current_Hour":19,"Current_Minutes":59,"Current_Seconds":26},{"lon":20.88621,"lat":48.92171,"ROUTE_NUMBER":"Os 7833 ","DELAY":480,"Current_Stop":"Krompachy","From":"Poprad-Tatry","Destination":"Košice","Direction":17,"Current_Time":1615230296303,"Current_Day":8,"Current_Hour":20,"Current_Minutes":4,"Current_Seconds":56},{"lon":20.63426,"lat":48.91024,"ROUTE_NUMBER":"Os 7830 ","DELAY":420,"Current_Stop":"Markušovce","From":"Košice","Destination":"Svit","Direction":51,"Current_Time":1615232216294,"Current_Day":8,"Current_Hour":20,"Current_Minutes":36,"Current_Seconds":56},{"lon":21.0886,"lat":49.10324,"ROUTE_NUMBER":"Os 8533 ","DELAY":0,"Current_Stop":"Sabinov","From":"Lipany","Destination":"Košice","Direction":18,"Current_Time":1615232951305,"Current_Day":8,"Current_Hour":20,"Current_Minutes":49,"Current_Seconds":11},{"lon":21.57934,"lat":48.58169,"ROUTE_NUMBER":"Os 8834 ","DELAY":0,"Current_Stop":"Kuzmice","From":"Čierna nad Tisou","Destination":"Košice","Direction":25,"Current_Time":1615233371314,"Current_Day":8,"Current_Hour":20,"Current_Minutes":56,"Current_Seconds":11},{"lon":22.05519,"lat":48.95489,"ROUTE_NUMBER":"Os 9435 ","DELAY":0,"Current_Stop":"Dlhé nad Cirochou","From":"Humenné","Destination":"Stakčín","Direction":6,"Current_Time":1615233836324,"Current_Day":8,"Current_Hour":21,"Current_Minutes":3,"Current_Seconds":56},{"lon":21.95465,"lat":49.05145,"ROUTE_NUMBER":"Os 8935 ","DELAY":240,"Current_Stop":"Koškovce","From":"Humenné","Destination":"Medzilaborce","Direction":52,"Current_Time":1615233911316,"Current_Day":8,"Current_Hour":21,"Current_Minutes":5,"Current_Seconds":11},{"lon":21.26872,"lat":48.72291,"ROUTE_NUMBER":"EN 442 Slovakia","DELAY":120,"Current_Stop":"Košice","From":"Humenné","Destination":"Žilina","Direction":50,"Current_Time":1615233926339,"Current_Day":8,"Current_Hour":21,"Current_Minutes":5,"Current_Seconds":26},{"lon":21.249126,"lat":48.983379,"ROUTE_NUMBER":"Os 8533 ","DELAY":-60,"Current_Stop":"Prešov","From":"Lipany","Destination":"Košice","Direction":18,"Current_Time":1615234121315,"Current_Day":8,"Current_Hour":21,"Current_Minutes":8,"Current_Seconds":41},{"lon":21.249126,"lat":48.983379,"ROUTE_NUMBER":"Os 8533 ","DELAY":-60,"Current_Stop":"Prešov","From":"Lipany","Destination":"Košice","Direction":18,"Current_Time":1615234136336,"Current_Day":8,"Current_Hour":21,"Current_Minutes":8,"Current_Seconds":56},{"lon":21.26872,"lat":48.72291,"ROUTE_NUMBER":"R 800 GEMERAN POĽANA","DELAY":60,"Current_Stop":"Košice","From":"Prešov","Destination":"Bratislava-Nové Mesto","Direction":53,"Current_Time":1615236371337,"Current_Day":8,"Current_Hour":21,"Current_Minutes":46,"Current_Seconds":11},{"lon":21.31413,"lat":49.14945,"ROUTE_NUMBER":"Os 9235 ","DELAY":0,"Current_Stop":"Raslavice","From":"Kapušany pri Prešove","Destination":"Bardejov","Direction":34,"Current_Time":1615236461335,"Current_Day":8,"Current_Hour":21,"Current_Minutes":47,"Current_Seconds":41},{"lon":21.22393,"lat":48.85288,"ROUTE_NUMBER":"R 611 TATRAN","DELAY":60,"Current_Stop":"Kysak","From":"Bratislava hlavná stanica","Destination":"Košice","Direction":20,"Current_Time":1615236761392,"Current_Day":8,"Current_Hour":21,"Current_Minutes":52,"Current_Seconds":41},{"lon":21.00288,"lat":48.60123,"ROUTE_NUMBER":"R 815 GEMERAN","DELAY":0,"Current_Stop":"Moldava nad Bodvou","From":"Bratislava hlavná stanica","Destination":"Košice","Direction":20,"Current_Time":1615237946625,"Current_Day":8,"Current_Hour":22,"Current_Minutes":12,"Current_Seconds":26},{"lon":21.17186,"lat":48.59126,"ROUTE_NUMBER":"R 815 GEMERAN","DELAY":0,"Current_Stop":"Veľká Ida","From":"Bratislava hlavná stanica","Destination":"Košice","Direction":20,"Current_Time":1615238516701,"Current_Day":8,"Current_Hour":22,"Current_Minutes":21,"Current_Seconds":56},{"lon":21.24601,"lat":48.7958,"ROUTE_NUMBER":"Os 8536 ","DELAY":0,"Current_Stop":"Kostoľany nad Hornádom","From":"Košice","Destination":"Lipany","Direction":21,"Current_Time":1615238936812,"Current_Day":8,"Current_Hour":22,"Current_Minutes":28,"Current_Seconds":56},{"lon":21.22393,"lat":48.85288,"ROUTE_NUMBER":"Os 8536 ","DELAY":120,"Current_Stop":"Kysak","From":"Košice","Destination":"Lipany","Direction":21,"Current_Time":1615239461934,"Current_Day":8,"Current_Hour":22,"Current_Minutes":37,"Current_Seconds":41},{"lon":21.71184,"lat":48.63306,"ROUTE_NUMBER":"R 614 TATRAN ZEMPLÍN","DELAY":0,"Current_Stop":"Trebišov","From":"Humenné","Destination":"Bratislava hlavná stanica","Direction":54,"Current_Time":1615239506954,"Current_Day":8,"Current_Hour":22,"Current_Minutes":38,"Current_Seconds":26},{"lon":21.241086,"lat":48.873332,"ROUTE_NUMBER":"Os 8536 ","DELAY":0,"Current_Stop":"Ličartovce","From":"Košice","Destination":"Lipany","Direction":21,"Current_Time":1615240002097,"Current_Day":8,"Current_Hour":22,"Current_Minutes":46,"Current_Seconds":42},{"lon":20.471821,"lat":49.184593,"ROUTE_NUMBER":"Os 8336 ","DELAY":0,"Current_Stop":"Spišská Belá zastávka","From":"Stará Ľubovňa","Destination":"Poprad-Tatry","Direction":22,"Current_Time":1615241457520,"Current_Day":8,"Current_Hour":23,"Current_Minutes":10,"Current_Seconds":57},{"lon":21.26712,"lat":49.01659,"ROUTE_NUMBER":"Os 9239 ","DELAY":60,"Current_Stop":"Šarišské Lúky","From":"Prešov","Destination":"Bardejov","Direction":4,"Current_Time":1615241547546,"Current_Day":8,"Current_Hour":23,"Current_Minutes":12,"Current_Seconds":27},{"lon":21.20295,"lat":49.04477,"ROUTE_NUMBER":"Os 8536 ","DELAY":0,"Current_Stop":"Veľký Šariš","From":"Košice","Destination":"Lipany","Direction":21,"Current_Time":1615241727668,"Current_Day":8,"Current_Hour":23,"Current_Minutes":15,"Current_Seconds":27},{"lon":21.20295,"lat":49.04477,"ROUTE_NUMBER":"Os 8536 ","DELAY":0,"Current_Stop":"Veľký Šariš","From":"Košice","Destination":"Lipany","Direction":21,"Current_Time":1615241742623,"Current_Day":8,"Current_Hour":23,"Current_Minutes":15,"Current_Seconds":42},{"lon":21.32044,"lat":49.04386,"ROUTE_NUMBER":"Os 9141 ","DELAY":60,"Current_Stop":"Kapušany pri Prešove","From":"Prešov","Destination":"Vranov nad Topľou","Direction":60,"Current_Time":1615242237772,"Current_Day":8,"Current_Hour":23,"Current_Minutes":23,"Current_Seconds":57},{"lon":21.22393,"lat":48.85288,"ROUTE_NUMBER":"R 614 TATRAN ZEMPLÍN","DELAY":360,"Current_Stop":"Kysak","From":"Humenné","Destination":"Bratislava hlavná stanica","Direction":54,"Current_Time":1615244698555,"Current_Day":9,"Current_Hour":0,"Current_Minutes":4,"Current_Seconds":58},{"lon":21.89858,"lat":48.75074,"ROUTE_NUMBER":"REX 1915 ","DELAY":-60,"Current_Stop":"Michalovce","From":"Košice","Destination":"Humenné","Direction":15,"Current_Time":1615245598809,"Current_Day":9,"Current_Hour":0,"Current_Minutes":19,"Current_Seconds":58},{"lon":21.90506,"lat":49.26186,"ROUTE_NUMBER":"Os 8931 ","DELAY":0,"Current_Stop":"Medzilaborce","From":"Humenné","Destination":"Medzilaborce mesto","Direction":13,"Current_Time":1615229306284,"Current_Day":8,"Current_Hour":19,"Current_Minutes":48,"Current_Seconds":26},{"lon":21.82483,"lat":48.86766,"ROUTE_NUMBER":"Os 9132 ","DELAY":0,"Current_Stop":"Strážske","From":"Humenné","Destination":"Prešov","Direction":3,"Current_Time":1615229471323,"Current_Day":8,"Current_Hour":19,"Current_Minutes":51,"Current_Seconds":11},{"lon":21.82483,"lat":48.86766,"ROUTE_NUMBER":"Os 9132 ","DELAY":0,"Current_Stop":"Strážske","From":"Humenné","Destination":"Prešov","Direction":3,"Current_Time":1615229502317,"Current_Day":8,"Current_Hour":19,"Current_Minutes":51,"Current_Seconds":42},{"lon":21.82483,"lat":48.86766,"ROUTE_NUMBER":"Os 9132 ","DELAY":0,"Current_Stop":"Strážske","From":"Humenné","Destination":"Prešov","Direction":3,"Current_Time":1615229516284,"Current_Day":8,"Current_Hour":19,"Current_Minutes":51,"Current_Seconds":56},{"lon":21.01324,"lat":48.89469,"ROUTE_NUMBER":"Os 7830 ","DELAY":120,"Current_Stop":"Margecany","From":"Košice","Destination":"Svit","Direction":51,"Current_Time":1615229921360,"Current_Day":8,"Current_Hour":19,"Current_Minutes":58,"Current_Seconds":41},{"lon":21.90506,"lat":49.26186,"ROUTE_NUMBER":"Os 8932 ","DELAY":0,"Current_Stop":"Medzilaborce","From":"Medzilaborce mesto","Destination":"Humenné","Direction":1,"Current_Time":1615231376317,"Current_Day":8,"Current_Hour":20,"Current_Minutes":22,"Current_Seconds":56},{"lon":21.75771,"lat":48.39034,"ROUTE_NUMBER":"Os 8834 ","DELAY":120,"Current_Stop":"Streda nad Bodrogom","From":"Čierna nad Tisou","Destination":"Košice","Direction":25,"Current_Time":1615231871300,"Current_Day":8,"Current_Hour":20,"Current_Minutes":31,"Current_Seconds":11},{"lon":20.63426,"lat":48.91024,"ROUTE_NUMBER":"Os 7830 ","DELAY":420,"Current_Stop":"Markušovce","From":"Košice","Destination":"Svit","Direction":51,"Current_Time":1615232201296,"Current_Day":8,"Current_Hour":20,"Current_Minutes":36,"Current_Seconds":41},{"lon":22.172956,"lat":48.983733,"ROUTE_NUMBER":"Os 9435 ","DELAY":0,"Current_Stop":"Snina","From":"Humenné","Destination":"Stakčín","Direction":6,"Current_Time":1615234871330,"Current_Day":8,"Current_Hour":21,"Current_Minutes":21,"Current_Seconds":11},{"lon":21.241086,"lat":48.873332,"ROUTE_NUMBER":"Os 8554 ","DELAY":0,"Current_Stop":"Ličartovce","From":"Kysak","Destination":"Prešov","Direction":56,"Current_Time":1615237211442,"Current_Day":8,"Current_Hour":22,"Current_Minutes":0,"Current_Seconds":11},{"lon":21.82483,"lat":48.86766,"ROUTE_NUMBER":"REX 1913 ","DELAY":0,"Current_Stop":"Strážske","From":"Košice","Destination":"Humenné","Direction":15,"Current_Time":1615239086857,"Current_Day":8,"Current_Hour":22,"Current_Minutes":31,"Current_Seconds":26},{"lon":21.00288,"lat":48.60123,"ROUTE_NUMBER":"R 800 GEMERAN POĽANA","DELAY":-60,"Current_Stop":"Moldava nad Bodvou","From":"Prešov","Destination":"Bratislava-Nové Mesto","Direction":53,"Current_Time":1615239236885,"Current_Day":8,"Current_Hour":22,"Current_Minutes":33,"Current_Seconds":56},{"lon":21.32044,"lat":49.04386,"ROUTE_NUMBER":"Os 9236 ","DELAY":0,"Current_Stop":"Kapušany pri Prešove","From":"Bardejov","Destination":"Prešov","Direction":16,"Current_Time":1615242057743,"Current_Day":8,"Current_Hour":23,"Current_Minutes":20,"Current_Seconds":57},{"lon":21.71184,"lat":48.63306,"ROUTE_NUMBER":"REX 1915 ","DELAY":60,"Current_Stop":"Trebišov","From":"Košice","Destination":"Humenné","Direction":15,"Current_Time":1615244398404,"Current_Day":8,"Current_Hour":23,"Current_Minutes":59,"Current_Seconds":58},{"lon":21.42887,"lat":48.67311,"ROUTE_NUMBER":"Os 8830 ","DELAY":300,"Current_Stop":"Ruskov","From":"Čierna nad Tisou","Destination":"Košice","Direction":25,"Current_Time":1615229081380,"Current_Day":8,"Current_Hour":19,"Current_Minutes":44,"Current_Seconds":41},{"lon":21.42887,"lat":48.67311,"ROUTE_NUMBER":"Os 8830 ","DELAY":300,"Current_Stop":"Ruskov","From":"Čierna nad Tisou","Destination":"Košice","Direction":25,"Current_Time":1615229096290,"Current_Day":8,"Current_Hour":19,"Current_Minutes":44,"Current_Seconds":56},{"lon":21.89858,"lat":48.75074,"ROUTE_NUMBER":"EN 442 Slovakia","DELAY":-60,"Current_Stop":"Michalovce","From":"Humenné","Destination":"Žilina","Direction":50,"Current_Time":1615229516284,"Current_Day":8,"Current_Hour":19,"Current_Minutes":51,"Current_Seconds":56},{"lon":21.22393,"lat":48.85288,"ROUTE_NUMBER":"Os 8530 ","DELAY":360,"Current_Stop":"Kysak","From":"Košice","Destination":"Lipany","Direction":21,"Current_Time":1615229981322,"Current_Day":8,"Current_Hour":19,"Current_Minutes":59,"Current_Seconds":41},{"lon":21.83458,"lat":48.67913,"ROUTE_NUMBER":"EN 442 Slovakia","DELAY":300,"Current_Stop":"Bánovce nad Ondavou","From":"Humenné","Destination":"Žilina","Direction":50,"Current_Time":1615230536286,"Current_Day":8,"Current_Hour":20,"Current_Minutes":8,"Current_Seconds":56},{"lon":21.6262,"lat":48.52172,"ROUTE_NUMBER":"Os 8831 ","DELAY":0,"Current_Stop":"Michaľany","From":"Košice","Destination":"Čierna nad Tisou","Direction":8,"Current_Time":1615230821368,"Current_Day":8,"Current_Hour":20,"Current_Minutes":13,"Current_Seconds":41},{"lon":21.133704,"lat":48.87403,"ROUTE_NUMBER":"Os 7833 ","DELAY":420,"Current_Stop":"Malá Lodina","From":"Poprad-Tatry","Destination":"Košice","Direction":17,"Current_Time":1615231751287,"Current_Day":8,"Current_Hour":20,"Current_Minutes":29,"Current_Seconds":11},{"lon":21.42887,"lat":48.67311,"ROUTE_NUMBER":"Os 8834 ","DELAY":0,"Current_Stop":"Ruskov","From":"Čierna nad Tisou","Destination":"Košice","Direction":25,"Current_Time":1615235216327,"Current_Day":8,"Current_Hour":21,"Current_Minutes":26,"Current_Seconds":56},{"lon":21.89858,"lat":48.75074,"ROUTE_NUMBER":"R 614 TATRAN ZEMPLÍN","DELAY":0,"Current_Stop":"Michalovce","From":"Humenné","Destination":"Bratislava hlavná stanica","Direction":54,"Current_Time":1615238321683,"Current_Day":8,"Current_Hour":22,"Current_Minutes":18,"Current_Seconds":41},{"lon":21.01324,"lat":48.89469,"ROUTE_NUMBER":"EN 442 Slovakia","DELAY":60,"Current_Stop":"Margecany","From":"Humenné","Destination":"Žilina","Direction":50,"Current_Time":1615238876832,"Current_Day":8,"Current_Hour":22,"Current_Minutes":27,"Current_Seconds":56},{"lon":21.82483,"lat":48.86766,"ROUTE_NUMBER":"Os 9135 ","DELAY":0,"Current_Stop":"Strážske","From":"Prešov","Destination":"Humenné","Direction":12,"Current_Time":1615238936812,"Current_Day":8,"Current_Hour":22,"Current_Minutes":28,"Current_Seconds":56},{"lon":21.24837,"lat":48.63143,"ROUTE_NUMBER":"Os 6436 ","DELAY":0,"Current_Stop":"Haniska pri Košiciach","From":"Košice","Destination":"Moldava nad Bodvou mesto","Direction":35,"Current_Time":1615239657003,"Current_Day":8,"Current_Hour":22,"Current_Minutes":40,"Current_Seconds":57},{"lon":20.52637,"lat":49.25529,"ROUTE_NUMBER":"Os 8336 ","DELAY":240,"Current_Stop":"Podolínec","From":"Stará Ľubovňa","Destination":"Poprad-Tatry","Direction":22,"Current_Time":1615240377250,"Current_Day":8,"Current_Hour":22,"Current_Minutes":52,"Current_Seconds":57},{"lon":20.51402,"lat":48.63529,"ROUTE_NUMBER":"R 800 GEMERAN POĽANA","DELAY":-240,"Current_Stop":"Rožňava","From":"Prešov","Destination":"Bratislava-Nové Mesto","Direction":53,"Current_Time":1615241337491,"Current_Day":8,"Current_Hour":23,"Current_Minutes":8,"Current_Seconds":57},{"lon":22.05519,"lat":48.95489,"ROUTE_NUMBER":"Os 9439 ","DELAY":0,"Current_Stop":"Dlhé nad Cirochou","From":"Humenné","Destination":"Stakčín","Direction":6,"Current_Time":1615241367494,"Current_Day":8,"Current_Hour":23,"Current_Minutes":9,"Current_Seconds":27},{"lon":21.32044,"lat":49.04386,"ROUTE_NUMBER":"Os 9239 ","DELAY":60,"Current_Stop":"Kapušany pri Prešove","From":"Prešov","Destination":"Bardejov","Direction":4,"Current_Time":1615241862652,"Current_Day":8,"Current_Hour":23,"Current_Minutes":17,"Current_Seconds":42},{"lon":21.01324,"lat":48.89469,"ROUTE_NUMBER":"R 613 TATRAN","DELAY":60,"Current_Stop":"Margecany","From":"Bratislava hlavná stanica","Destination":"Košice","Direction":20,"Current_Time":1615243078013,"Current_Day":8,"Current_Hour":23,"Current_Minutes":37,"Current_Seconds":58},{"lon":21.22393,"lat":48.85288,"ROUTE_NUMBER":"R 613 TATRAN","DELAY":60,"Current_Stop":"Kysak","From":"Bratislava hlavná stanica","Destination":"Košice","Direction":20,"Current_Time":1615243948268,"Current_Day":8,"Current_Hour":23,"Current_Minutes":52,"Current_Seconds":28},{"lon":21.22393,"lat":48.85288,"ROUTE_NUMBER":"Os 7830 ","DELAY":300,"Current_Stop":"Kysak","From":"Košice","Destination":"Svit","Direction":51,"Current_Time":1615228766283,"Current_Day":8,"Current_Hour":19,"Current_Minutes":39,"Current_Seconds":26},{"lon":21.82483,"lat":48.86766,"ROUTE_NUMBER":"EN 442 Slovakia","DELAY":0,"Current_Stop":"Strážske","From":"Humenné","Destination":"Žilina","Direction":50,"Current_Time":1615228811310,"Current_Day":8,"Current_Hour":19,"Current_Minutes":40,"Current_Seconds":11},{"lon":21.0886,"lat":49.10324,"ROUTE_NUMBER":"Os 8528 ","DELAY":120,"Current_Stop":"Sabinov","From":"Košice","Destination":"Lipany","Direction":21,"Current_Time":1615229306284,"Current_Day":8,"Current_Hour":19,"Current_Minutes":48,"Current_Seconds":26},{"lon":21.24601,"lat":48.7958,"ROUTE_NUMBER":"Os 8530 ","DELAY":60,"Current_Stop":"Kostoľany nad Hornádom","From":"Košice","Destination":"Lipany","Direction":21,"Current_Time":1615229351309,"Current_Day":8,"Current_Hour":19,"Current_Minutes":49,"Current_Seconds":11},{"lon":21.22393,"lat":48.85288,"ROUTE_NUMBER":"Os 8530 ","DELAY":360,"Current_Stop":"Kysak","From":"Košice","Destination":"Lipany","Direction":21,"Current_Time":1615229951310,"Current_Day":8,"Current_Hour":19,"Current_Minutes":59,"Current_Seconds":11},{"lon":21.241086,"lat":48.873332,"ROUTE_NUMBER":"Os 8555 ","DELAY":60,"Current_Stop":"Ličartovce","From":"Prešov","Destination":"Kysak","Direction":29,"Current_Time":1615230071329,"Current_Day":8,"Current_Hour":20,"Current_Minutes":1,"Current_Seconds":11},{"lon":20.81501,"lat":48.81167,"ROUTE_NUMBER":"Os 7455 ","DELAY":0,"Current_Stop":"Mníšek nad Hnilcom","From":"Dobšinská Ľadová Jaskyňa","Destination":"Margecany","Direction":33,"Current_Time":1615232621317,"Current_Day":8,"Current_Hour":20,"Current_Minutes":43,"Current_Seconds":41},{"lon":22.05519,"lat":48.95489,"ROUTE_NUMBER":"Os 9434 ","DELAY":0,"Current_Stop":"Dlhé nad Cirochou","From":"Stakčín","Destination":"Humenné","Direction":5,"Current_Time":1615233701315,"Current_Day":8,"Current_Hour":21,"Current_Minutes":1,"Current_Seconds":41},{"lon":21.01324,"lat":48.89469,"ROUTE_NUMBER":"RR 766 TATRAN","DELAY":240,"Current_Stop":"Margecany","From":"Košice","Destination":"Poprad-Tatry","Direction":9,"Current_Time":1615233911316,"Current_Day":8,"Current_Hour":21,"Current_Minutes":5,"Current_Seconds":11},{"lon":21.22393,"lat":48.85288,"ROUTE_NUMBER":"Os 7834 ","DELAY":120,"Current_Stop":"Kysak","From":"Košice","Destination":"Spišská Nová Ves","Direction":55,"Current_Time":1615236521359,"Current_Day":8,"Current_Hour":21,"Current_Minutes":48,"Current_Seconds":41},{"lon":21.01324,"lat":48.89469,"ROUTE_NUMBER":"Os 7834 ","DELAY":60,"Current_Stop":"Margecany","From":"Košice","Destination":"Spišská Nová Ves","Direction":55,"Current_Time":1615237602566,"Current_Day":8,"Current_Hour":22,"Current_Minutes":6,"Current_Seconds":42},{"lon":21.22393,"lat":48.85288,"ROUTE_NUMBER":"Os 8533 ","DELAY":60,"Current_Stop":"Kysak","From":"Lipany","Destination":"Košice","Direction":18,"Current_Time":1615237646535,"Current_Day":8,"Current_Hour":22,"Current_Minutes":7,"Current_Seconds":26},{"lon":21.245198,"lat":48.911472,"ROUTE_NUMBER":"Os 8554 ","DELAY":300,"Current_Stop":"Drienovská Nová Ves","From":"Kysak","Destination":"Prešov","Direction":56,"Current_Time":1615237856587,"Current_Day":8,"Current_Hour":22,"Current_Minutes":10,"Current_Seconds":56},{"lon":21.83458,"lat":48.67913,"ROUTE_NUMBER":"REX 1913 ","DELAY":660,"Current_Stop":"Bánovce nad Ondavou","From":"Košice","Destination":"Humenné","Direction":15,"Current_Time":1615237961637,"Current_Day":8,"Current_Hour":22,"Current_Minutes":12,"Current_Seconds":41},{"lon":20.81501,"lat":48.81167,"ROUTE_NUMBER":"Os 7419 ","DELAY":0,"Current_Stop":"Mníšek nad Hnilcom","From":"Nálepkovo","Destination":"Margecany","Direction":7,"Current_Time":1615291075731,"Current_Day":9,"Current_Hour":12,"Current_Minutes":57,"Current_Seconds":55},{"lon":21.6262,"lat":48.52172,"ROUTE_NUMBER":"Os 8861 ","DELAY":120,"Current_Stop":"Michaľany","From":"Čierna nad Tisou","Destination":"Košice","Direction":25,"Current_Time":1615291075731,"Current_Day":9,"Current_Hour":12,"Current_Minutes":57,"Current_Seconds":55},{"lon":21.22393,"lat":48.85288,"ROUTE_NUMBER":"Os 8516 ","DELAY":420,"Current_Stop":"Kysak","From":"Košice","Destination":"Lipany","Direction":21,"Current_Time":1615291255745,"Current_Day":9,"Current_Hour":13,"Current_Minutes":0,"Current_Seconds":55},{"lon":21.32044,"lat":49.04386,"ROUTE_NUMBER":"Os 9116 ","DELAY":120,"Current_Stop":"Kapušany pri Prešove","From":"Humenné","Destination":"Prešov","Direction":3,"Current_Time":1615291285767,"Current_Day":9,"Current_Hour":13,"Current_Minutes":1,"Current_Seconds":25},{"lon":20.88565,"lat":48.82017,"ROUTE_NUMBER":"Os 7450 ","DELAY":360,"Current_Stop":"Prakovce","From":"Margecany","Destination":"Mlynky","Direction":24,"Current_Time":1615291285767,"Current_Day":9,"Current_Hour":13,"Current_Minutes":1,"Current_Seconds":25},{"lon":21.32044,"lat":49.04386,"ROUTE_NUMBER":"Os 9116 ","DELAY":120,"Current_Stop":"Kapušany pri Prešove","From":"Humenné","Destination":"Prešov","Direction":3,"Current_Time":1615291315853,"Current_Day":9,"Current_Hour":13,"Current_Minutes":1,"Current_Seconds":55},{"lon":21.95465,"lat":49.05145,"ROUTE_NUMBER":"Os 8919 ","DELAY":0,"Current_Stop":"Koškovce","From":"Humenné","Destination":"Medzilaborce mesto","Direction":13,"Current_Time":1615291315853,"Current_Day":9,"Current_Hour":13,"Current_Minutes":1,"Current_Seconds":55},{"lon":20.88565,"lat":48.82017,"ROUTE_NUMBER":"Os 7450 ","DELAY":360,"Current_Stop":"Prakovce","From":"Margecany","Destination":"Mlynky","Direction":24,"Current_Time":1615291300759,"Current_Day":9,"Current_Hour":13,"Current_Minutes":1,"Current_Seconds":40},{"lon":21.32044,"lat":49.04386,"ROUTE_NUMBER":"Os 9116 ","DELAY":120,"Current_Stop":"Kapušany pri Prešove","From":"Humenné","Destination":"Prešov","Direction":3,"Current_Time":1615291300759,"Current_Day":9,"Current_Hour":13,"Current_Minutes":1,"Current_Seconds":40},{"lon":21.241086,"lat":48.873332,"ROUTE_NUMBER":"Os 8517 ","DELAY":0,"Current_Stop":"Ličartovce","From":"Lipany","Destination":"Košice","Direction":18,"Current_Time":1615291375786,"Current_Day":9,"Current_Hour":13,"Current_Minutes":2,"Current_Seconds":55},{"lon":22.05519,"lat":48.95489,"ROUTE_NUMBER":"Os 9419 ","DELAY":0,"Current_Stop":"Dlhé nad Cirochou","From":"Humenné","Destination":"Stakčín","Direction":6,"Current_Time":1615291375786,"Current_Day":9,"Current_Hour":13,"Current_Minutes":2,"Current_Seconds":55},{"lon":21.32044,"lat":49.04386,"ROUTE_NUMBER":"Os 9119 ","DELAY":0,"Current_Stop":"Kapušany pri Prešove","From":"Prešov","Destination":"Humenné","Direction":12,"Current_Time":1615291105728,"Current_Day":9,"Current_Hour":12,"Current_Minutes":58,"Current_Seconds":25},{"lon":21.01324,"lat":48.89469,"ROUTE_NUMBER":"Os 7816 ","DELAY":240,"Current_Stop":"Margecany","From":"Košice","Destination":"Poprad-Tatry","Direction":9,"Current_Time":1615291255745,"Current_Day":9,"Current_Hour":13,"Current_Minutes":0,"Current_Seconds":55},{"lon":21.31413,"lat":49.14945,"ROUTE_NUMBER":"Os 9217 ","DELAY":0,"Current_Stop":"Raslavice","From":"Prešov","Destination":"Bardejov","Direction":4,"Current_Time":1615291255745,"Current_Day":9,"Current_Hour":13,"Current_Minutes":0,"Current_Seconds":55},{"lon":21.32044,"lat":49.04386,"ROUTE_NUMBER":"Os 9119 ","DELAY":0,"Current_Stop":"Kapušany pri Prešove","From":"Prešov","Destination":"Humenné","Direction":12,"Current_Time":1615291135729,"Current_Day":9,"Current_Hour":12,"Current_Minutes":58,"Current_Seconds":55},{"lon":21.22393,"lat":48.85288,"ROUTE_NUMBER":"Os 8516 ","DELAY":420,"Current_Stop":"Kysak","From":"Košice","Destination":"Lipany","Direction":21,"Current_Time":1615291240746,"Current_Day":9,"Current_Hour":13,"Current_Minutes":0,"Current_Seconds":40},{"lon":20.81501,"lat":48.81167,"ROUTE_NUMBER":"Os 7419 ","DELAY":0,"Current_Stop":"Mníšek nad Hnilcom","From":"Nálepkovo","Destination":"Margecany","Direction":7,"Current_Time":1615291045736,"Current_Day":9,"Current_Hour":12,"Current_Minutes":57,"Current_Seconds":25},{"lon":22.05519,"lat":48.95489,"ROUTE_NUMBER":"Os 9418 ","DELAY":0,"Current_Stop":"Dlhé nad Cirochou","From":"Stakčín","Destination":"Humenné","Direction":5,"Current_Time":1615291255745,"Current_Day":9,"Current_Hour":13,"Current_Minutes":0,"Current_Seconds":55},{"lon":21.22393,"lat":48.85288,"ROUTE_NUMBER":"Os 8516 ","DELAY":420,"Current_Stop":"Kysak","From":"Košice","Destination":"Lipany","Direction":21,"Current_Time":1615291225748,"Current_Day":9,"Current_Hour":13,"Current_Minutes":0,"Current_Seconds":25},{"lon":20.56151,"lat":48.95041,"ROUTE_NUMBER":"R 608 TATRAN","DELAY":600,"Current_Stop":"Spišská Nová Ves","From":"Košice","Destination":"Bratislava hlavná stanica","Direction":23,"Current_Time":1615291495818,"Current_Day":9,"Current_Hour":13,"Current_Minutes":4,"Current_Seconds":55},{"lon":20.56151,"lat":48.95041,"ROUTE_NUMBER":"Os 7821 ","DELAY":180,"Current_Stop":"Spišská Nová Ves","From":"Poprad-Tatry","Destination":"Košice","Direction":17,"Current_Time":1615291585834,"Current_Day":9,"Current_Hour":13,"Current_Minutes":6,"Current_Seconds":25},{"lon":20.56151,"lat":48.95041,"ROUTE_NUMBER":"Os 7821 ","DELAY":180,"Current_Stop":"Spišská Nová Ves","From":"Poprad-Tatry","Destination":"Košice","Direction":17,"Current_Time":1615291600806,"Current_Day":9,"Current_Hour":13,"Current_Minutes":6,"Current_Seconds":40},{"lon":21.26872,"lat":48.72291,"ROUTE_NUMBER":"REX 1903 ","DELAY":360,"Current_Stop":"Košice","From":"Košice","Destination":"Humenné","Direction":15,"Current_Time":1615291735846,"Current_Day":9,"Current_Hour":13,"Current_Minutes":8,"Current_Seconds":55},{"lon":20.56151,"lat":48.95041,"ROUTE_NUMBER":"R 603 TATRAN","DELAY":120,"Current_Stop":"Spišská Nová Ves","From":"Bratislava hlavná stanica","Destination":"Košice","Direction":20,"Current_Time":1615291765830,"Current_Day":9,"Current_Hour":13,"Current_Minutes":9,"Current_Seconds":25},{"lon":20.56151,"lat":48.95041,"ROUTE_NUMBER":"R 603 TATRAN","DELAY":120,"Current_Stop":"Spišská Nová Ves","From":"Bratislava hlavná stanica","Destination":"Košice","Direction":20,"Current_Time":1615291795843,"Current_Day":9,"Current_Hour":13,"Current_Minutes":9,"Current_Seconds":55},{"lon":20.56151,"lat":48.95041,"ROUTE_NUMBER":"R 603 TATRAN","DELAY":120,"Current_Stop":"Spišská Nová Ves","From":"Bratislava hlavná stanica","Destination":"Košice","Direction":20,"Current_Time":1615291780844,"Current_Day":9,"Current_Hour":13,"Current_Minutes":9,"Current_Seconds":40},{"lon":21.22393,"lat":48.85288,"ROUTE_NUMBER":"Os 8517 ","DELAY":300,"Current_Stop":"Kysak","From":"Lipany","Destination":"Košice","Direction":18,"Current_Time":1615291975878,"Current_Day":9,"Current_Hour":13,"Current_Minutes":12,"Current_Seconds":55},{"lon":21.48874,"lat":48.64368,"ROUTE_NUMBER":"Os 8861 ","DELAY":0,"Current_Stop":"Slanec","From":"Čierna nad Tisou","Destination":"Košice","Direction":25,"Current_Time":1615292336035,"Current_Day":9,"Current_Hour":13,"Current_Minutes":18,"Current_Seconds":56},{"lon":20.94725,"lat":48.85834,"ROUTE_NUMBER":"Os 7418 ","DELAY":0,"Current_Stop":"Gelnica","From":"Margecany","Destination":"Nálepkovo","Direction":14,"Current_Time":1615292486031,"Current_Day":9,"Current_Hour":13,"Current_Minutes":21,"Current_Seconds":26},{"lon":20.94725,"lat":48.85834,"ROUTE_NUMBER":"Os 7418 ","DELAY":0,"Current_Stop":"Gelnica","From":"Margecany","Destination":"Nálepkovo","Direction":14,"Current_Time":1615292501050,"Current_Day":9,"Current_Hour":13,"Current_Minutes":21,"Current_Seconds":41},{"lon":20.63426,"lat":48.91024,"ROUTE_NUMBER":"Os 7821 ","DELAY":0,"Current_Stop":"Markušovce","From":"Poprad-Tatry","Destination":"Košice","Direction":17,"Current_Time":1615292696066,"Current_Day":9,"Current_Hour":13,"Current_Minutes":24,"Current_Seconds":56},{"lon":21.249126,"lat":48.983379,"ROUTE_NUMBER":"Os 8516 ","DELAY":420,"Current_Stop":"Prešov","From":"Košice","Destination":"Lipany","Direction":21,"Current_Time":1615292696066,"Current_Day":9,"Current_Hour":13,"Current_Minutes":24,"Current_Seconds":56},{"lon":20.63426,"lat":48.91024,"ROUTE_NUMBER":"Os 7821 ","DELAY":0,"Current_Stop":"Markušovce","From":"Poprad-Tatry","Destination":"Košice","Direction":17,"Current_Time":1615292666064,"Current_Day":9,"Current_Hour":13,"Current_Minutes":24,"Current_Seconds":26},{"lon":21.32044,"lat":49.04386,"ROUTE_NUMBER":"Os 9216 ","DELAY":0,"Current_Stop":"Kapušany pri Prešove","From":"Bardejov","Destination":"Prešov","Direction":16,"Current_Time":1615292666064,"Current_Day":9,"Current_Hour":13,"Current_Minutes":24,"Current_Seconds":26},{"lon":21.32044,"lat":49.04386,"ROUTE_NUMBER":"Os 9216 ","DELAY":0,"Current_Stop":"Kapušany pri Prešove","From":"Bardejov","Destination":"Prešov","Direction":16,"Current_Time":1615292696066,"Current_Day":9,"Current_Hour":13,"Current_Minutes":24,"Current_Seconds":56},{"lon":21.92189,"lat":49.13492,"ROUTE_NUMBER":"Os 8919 ","DELAY":0,"Current_Stop":"Radvaň nad Laborcom","From":"Humenné","Destination":"Medzilaborce mesto","Direction":13,"Current_Time":1615292786071,"Current_Day":9,"Current_Hour":13,"Current_Minutes":26,"Current_Seconds":26},{"lon":21.92189,"lat":49.13492,"ROUTE_NUMBER":"Os 8919 ","DELAY":0,"Current_Stop":"Radvaň nad Laborcom","From":"Humenné","Destination":"Medzilaborce mesto","Direction":13,"Current_Time":1615292816096,"Current_Day":9,"Current_Hour":13,"Current_Minutes":26,"Current_Seconds":56},{"lon":20.63011,"lat":48.83833,"ROUTE_NUMBER":"Os 7450 ","DELAY":180,"Current_Stop":"Nálepkovo","From":"Margecany","Destination":"Mlynky","Direction":24,"Current_Time":1615292906097,"Current_Day":9,"Current_Hour":13,"Current_Minutes":28,"Current_Seconds":26},{"lon":21.24601,"lat":48.7958,"ROUTE_NUMBER":"Os 8517 ","DELAY":720,"Current_Stop":"Kostoľany nad Hornádom","From":"Lipany","Destination":"Košice","Direction":18,"Current_Time":1615292936079,"Current_Day":9,"Current_Hour":13,"Current_Minutes":28,"Current_Seconds":56},{"lon":21.24837,"lat":48.63143,"ROUTE_NUMBER":"Os 6419 ","DELAY":0,"Current_Stop":"Haniska pri Košiciach","From":"Moldava nad Bodvou mesto","Destination":"Košice","Direction":26,"Current_Time":1615292936079,"Current_Day":9,"Current_Hour":13,"Current_Minutes":28,"Current_Seconds":56},{"lon":20.63011,"lat":48.83833,"ROUTE_NUMBER":"Os 7450 ","DELAY":180,"Current_Stop":"Nálepkovo","From":"Margecany","Destination":"Mlynky","Direction":24,"Current_Time":1615292936079,"Current_Day":9,"Current_Hour":13,"Current_Minutes":28,"Current_Seconds":56},{"lon":20.63011,"lat":48.83833,"ROUTE_NUMBER":"Os 7450 ","DELAY":180,"Current_Stop":"Nálepkovo","From":"Margecany","Destination":"Mlynky","Direction":24,"Current_Time":1615292921187,"Current_Day":9,"Current_Hour":13,"Current_Minutes":28,"Current_Seconds":41},{"lon":21.24601,"lat":48.7958,"ROUTE_NUMBER":"Os 7818 ","DELAY":0,"Current_Stop":"Kostoľany nad Hornádom","From":"Košice","Destination":"Poprad-Tatry","Direction":9,"Current_Time":1615292966096,"Current_Day":9,"Current_Hour":13,"Current_Minutes":29,"Current_Seconds":26},{"lon":21.24601,"lat":48.7958,"ROUTE_NUMBER":"Os 7818 ","DELAY":0,"Current_Stop":"Kostoľany nad Hornádom","From":"Košice","Destination":"Poprad-Tatry","Direction":9,"Current_Time":1615292981181,"Current_Day":9,"Current_Hour":13,"Current_Minutes":29,"Current_Seconds":41},{"lon":20.94725,"lat":48.85834,"ROUTE_NUMBER":"Os 7419 ","DELAY":60,"Current_Stop":"Gelnica","From":"Nálepkovo","Destination":"Margecany","Direction":7,"Current_Time":1615292996091,"Current_Day":9,"Current_Hour":13,"Current_Minutes":29,"Current_Seconds":56},{"lon":21.26712,"lat":49.01659,"ROUTE_NUMBER":"Os 9216 ","DELAY":0,"Current_Stop":"Šarišské Lúky","From":"Bardejov","Destination":"Prešov","Direction":16,"Current_Time":1615293176122,"Current_Day":9,"Current_Hour":13,"Current_Minutes":32,"Current_Seconds":56},{"lon":21.20295,"lat":49.04477,"ROUTE_NUMBER":"Os 8519 ","DELAY":0,"Current_Stop":"Veľký Šariš","From":"Lipany","Destination":"Košice","Direction":18,"Current_Time":1615293446178,"Current_Day":9,"Current_Hour":13,"Current_Minutes":37,"Current_Seconds":26},{"lon":21.20295,"lat":49.04477,"ROUTE_NUMBER":"Os 8519 ","DELAY":0,"Current_Stop":"Veľký Šariš","From":"Lipany","Destination":"Košice","Direction":18,"Current_Time":1615293461378,"Current_Day":9,"Current_Hour":13,"Current_Minutes":37,"Current_Seconds":41},{"lon":21.90506,"lat":49.26186,"ROUTE_NUMBER":"Os 8919 ","DELAY":0,"Current_Stop":"Medzilaborce","From":"Humenné","Destination":"Medzilaborce mesto","Direction":13,"Current_Time":1615294181282,"Current_Day":9,"Current_Hour":13,"Current_Minutes":49,"Current_Seconds":41},{"lon":20.81501,"lat":48.81167,"ROUTE_NUMBER":"Os 7421 ","DELAY":0,"Current_Stop":"Mníšek nad Hnilcom","From":"Nálepkovo","Destination":"Margecany","Direction":7,"Current_Time":1615294226339,"Current_Day":9,"Current_Hour":13,"Current_Minutes":50,"Current_Seconds":26},{"lon":20.56151,"lat":48.95041,"ROUTE_NUMBER":"Os 7816 ","DELAY":180,"Current_Stop":"Spišská Nová Ves","From":"Košice","Destination":"Poprad-Tatry","Direction":9,"Current_Time":1615293716231,"Current_Day":9,"Current_Hour":13,"Current_Minutes":41,"Current_Seconds":56},{"lon":20.72323,"lat":48.8055,"ROUTE_NUMBER":"Os 7421 ","DELAY":0,"Current_Stop":"Švedlár","From":"Nálepkovo","Destination":"Margecany","Direction":7,"Current_Time":1615293746338,"Current_Day":9,"Current_Hour":13,"Current_Minutes":42,"Current_Seconds":26},{"lon":20.56151,"lat":48.95041,"ROUTE_NUMBER":"Os 7816 ","DELAY":180,"Current_Stop":"Spišská Nová Ves","From":"Košice","Destination":"Poprad-Tatry","Direction":9,"Current_Time":1615293686231,"Current_Day":9,"Current_Hour":13,"Current_Minutes":41,"Current_Seconds":26},{"lon":20.56151,"lat":48.95041,"ROUTE_NUMBER":"Os 7816 ","DELAY":180,"Current_Stop":"Spišská Nová Ves","From":"Košice","Destination":"Poprad-Tatry","Direction":9,"Current_Time":1615293701286,"Current_Day":9,"Current_Hour":13,"Current_Minutes":41,"Current_Seconds":41},{"lon":20.72323,"lat":48.8055,"ROUTE_NUMBER":"Os 7421 ","DELAY":0,"Current_Stop":"Švedlár","From":"Nálepkovo","Destination":"Margecany","Direction":7,"Current_Time":1615293761229,"Current_Day":9,"Current_Hour":13,"Current_Minutes":42,"Current_Seconds":41},{"lon":20.80377,"lat":48.93557,"ROUTE_NUMBER":"Os 7821 ","DELAY":180,"Current_Stop":"Spišské Vlachy","From":"Poprad-Tatry","Destination":"Košice","Direction":17,"Current_Time":1615293761229,"Current_Day":9,"Current_Hour":13,"Current_Minutes":42,"Current_Seconds":41},{"lon":21.27623,"lat":48.67927,"ROUTE_NUMBER":"Os 6419 ","DELAY":420,"Current_Stop":"Barca","From":"Moldava nad Bodvou mesto","Destination":"Košice","Direction":26,"Current_Time":1615293686231,"Current_Day":9,"Current_Hour":13,"Current_Minutes":41,"Current_Seconds":26},{"lon":20.80377,"lat":48.93557,"ROUTE_NUMBER":"Os 7821 ","DELAY":180,"Current_Stop":"Spišské Vlachy","From":"Poprad-Tatry","Destination":"Košice","Direction":17,"Current_Time":1615293776295,"Current_Day":9,"Current_Hour":13,"Current_Minutes":42,"Current_Seconds":56},{"lon":20.81501,"lat":48.81167,"ROUTE_NUMBER":"Os 7421 ","DELAY":0,"Current_Stop":"Mníšek nad Hnilcom","From":"Nálepkovo","Destination":"Margecany","Direction":7,"Current_Time":1615294241296,"Current_Day":9,"Current_Hour":13,"Current_Minutes":50,"Current_Seconds":41},{"lon":21.27623,"lat":48.67927,"ROUTE_NUMBER":"Os 6419 ","DELAY":420,"Current_Stop":"Barca","From":"Moldava nad Bodvou mesto","Destination":"Košice","Direction":26,"Current_Time":1615293701286,"Current_Day":9,"Current_Hour":13,"Current_Minutes":41,"Current_Seconds":41},{"lon":20.80377,"lat":48.93557,"ROUTE_NUMBER":"Os 7821 ","DELAY":180,"Current_Stop":"Spišské Vlachy","From":"Poprad-Tatry","Destination":"Košice","Direction":17,"Current_Time":1615293746338,"Current_Day":9,"Current_Hour":13,"Current_Minutes":42,"Current_Seconds":26},{"lon":20.88565,"lat":48.82017,"ROUTE_NUMBER":"Os 7418 ","DELAY":0,"Current_Stop":"Prakovce","From":"Margecany","Destination":"Nálepkovo","Direction":14,"Current_Time":1615293896374,"Current_Day":9,"Current_Hour":13,"Current_Minutes":44,"Current_Seconds":56},{"lon":21.249126,"lat":48.983379,"ROUTE_NUMBER":"Os 8519 ","DELAY":180,"Current_Stop":"Prešov","From":"Lipany","Destination":"Košice","Direction":18,"Current_Time":1615293956296,"Current_Day":9,"Current_Hour":13,"Current_Minutes":45,"Current_Seconds":56},{"lon":21.90506,"lat":49.26186,"ROUTE_NUMBER":"Os 8919 ","DELAY":0,"Current_Stop":"Medzilaborce","From":"Humenné","Destination":"Medzilaborce mesto","Direction":13,"Current_Time":1615294166337,"Current_Day":9,"Current_Hour":13,"Current_Minutes":49,"Current_Seconds":26},{"lon":21.990302,"lat":48.933803,"ROUTE_NUMBER":"Os 9421 ","DELAY":0,"Current_Stop":"Kamenica nad Cirochou","From":"Humenné","Destination":"Stakčín","Direction":6,"Current_Time":1615294256368,"Current_Day":9,"Current_Hour":13,"Current_Minutes":50,"Current_Seconds":56},{"lon":20.81501,"lat":48.81167,"ROUTE_NUMBER":"Os 7421 ","DELAY":0,"Current_Stop":"Mníšek nad Hnilcom","From":"Nálepkovo","Destination":"Margecany","Direction":7,"Current_Time":1615294256368,"Current_Day":9,"Current_Hour":13,"Current_Minutes":50,"Current_Seconds":56},{"lon":21.75188,"lat":48.85705,"ROUTE_NUMBER":"Os 9119 ","DELAY":0,"Current_Stop":"Nižný Hrabovec","From":"Prešov","Destination":"Humenné","Direction":12,"Current_Time":1615294676394,"Current_Day":9,"Current_Hour":13,"Current_Minutes":57,"Current_Seconds":56},{"lon":21.22393,"lat":48.85288,"ROUTE_NUMBER":"Os 8518 ","DELAY":360,"Current_Stop":"Kysak","From":"Košice","Destination":"Lipany","Direction":21,"Current_Time":1615294781438,"Current_Day":9,"Current_Hour":13,"Current_Minutes":59,"Current_Seconds":41},{"lon":22.05519,"lat":48.95489,"ROUTE_NUMBER":"Os 9420 ","DELAY":0,"Current_Stop":"Dlhé nad Cirochou","From":"Stakčín","Destination":"Humenné","Direction":5,"Current_Time":1615294841441,"Current_Day":9,"Current_Hour":14,"Current_Minutes":0,"Current_Seconds":41},{"lon":22.05519,"lat":48.95489,"ROUTE_NUMBER":"Os 9420 ","DELAY":0,"Current_Stop":"Dlhé nad Cirochou","From":"Stakčín","Destination":"Humenné","Direction":5,"Current_Time":1615294826412,"Current_Day":9,"Current_Hour":14,"Current_Minutes":0,"Current_Seconds":26},{"lon":21.22393,"lat":48.85288,"ROUTE_NUMBER":"Os 8518 ","DELAY":360,"Current_Stop":"Kysak","From":"Košice","Destination":"Lipany","Direction":21,"Current_Time":1615294766416,"Current_Day":9,"Current_Hour":13,"Current_Minutes":59,"Current_Seconds":26},{"lon":21.75188,"lat":48.85705,"ROUTE_NUMBER":"Os 9120 ","DELAY":0,"Current_Stop":"Nižný Hrabovec","From":"Humenné","Destination":"Prešov","Direction":3,"Current_Time":1615294841441,"Current_Day":9,"Current_Hour":14,"Current_Minutes":0,"Current_Seconds":41},{"lon":21.01324,"lat":48.89469,"ROUTE_NUMBER":"Os 7818 ","DELAY":180,"Current_Stop":"Margecany","From":"Košice","Destination":"Poprad-Tatry","Direction":9,"Current_Time":1615294856571,"Current_Day":9,"Current_Hour":14,"Current_Minutes":0,"Current_Seconds":56},{"lon":22.05519,"lat":48.95489,"ROUTE_NUMBER":"Os 9420 ","DELAY":0,"Current_Stop":"Dlhé nad Cirochou","From":"Stakčín","Destination":"Humenné","Direction":5,"Current_Time":1615294856571,"Current_Day":9,"Current_Hour":14,"Current_Minutes":0,"Current_Seconds":56},{"lon":21.75188,"lat":48.85705,"ROUTE_NUMBER":"Os 9120 ","DELAY":0,"Current_Stop":"Nižný Hrabovec","From":"Humenné","Destination":"Prešov","Direction":3,"Current_Time":1615294856571,"Current_Day":9,"Current_Hour":14,"Current_Minutes":0,"Current_Seconds":56},{"lon":21.22393,"lat":48.85288,"ROUTE_NUMBER":"Os 8518 ","DELAY":360,"Current_Stop":"Kysak","From":"Košice","Destination":"Lipany","Direction":21,"Current_Time":1615294796410,"Current_Day":9,"Current_Hour":13,"Current_Minutes":59,"Current_Seconds":56},{"lon":21.75188,"lat":48.85705,"ROUTE_NUMBER":"Os 9120 ","DELAY":0,"Current_Stop":"Nižný Hrabovec","From":"Humenné","Destination":"Prešov","Direction":3,"Current_Time":1615294826412,"Current_Day":9,"Current_Hour":14,"Current_Minutes":0,"Current_Seconds":26},{"lon":21.241086,"lat":48.873332,"ROUTE_NUMBER":"Os 8519 ","DELAY":120,"Current_Stop":"Ličartovce","From":"Lipany","Destination":"Košice","Direction":18,"Current_Time":1615294946427,"Current_Day":9,"Current_Hour":14,"Current_Minutes":2,"Current_Seconds":26},{"lon":22.05519,"lat":48.95489,"ROUTE_NUMBER":"Os 9421 ","DELAY":0,"Current_Stop":"Dlhé nad Cirochou","From":"Humenné","Destination":"Stakčín","Direction":6,"Current_Time":1615294946427,"Current_Day":9,"Current_Hour":14,"Current_Minutes":2,"Current_Seconds":26},{"lon":20.72323,"lat":48.8055,"ROUTE_NUMBER":"Os 7418 ","DELAY":0,"Current_Stop":"Švedlár","From":"Margecany","Destination":"Nálepkovo","Direction":14,"Current_Time":1615294946427,"Current_Day":9,"Current_Hour":14,"Current_Minutes":2,"Current_Seconds":26},{"lon":22.05519,"lat":48.95489,"ROUTE_NUMBER":"Os 9421 ","DELAY":0,"Current_Stop":"Dlhé nad Cirochou","From":"Humenné","Destination":"Stakčín","Direction":6,"Current_Time":1615294976448,"Current_Day":9,"Current_Hour":14,"Current_Minutes":2,"Current_Seconds":56},{"lon":21.241086,"lat":48.873332,"ROUTE_NUMBER":"Os 8519 ","DELAY":120,"Current_Stop":"Ličartovce","From":"Lipany","Destination":"Košice","Direction":18,"Current_Time":1615294976448,"Current_Day":9,"Current_Hour":14,"Current_Minutes":2,"Current_Seconds":56},{"lon":21.241086,"lat":48.873332,"ROUTE_NUMBER":"Os 8518 ","DELAY":300,"Current_Stop":"Ličartovce","From":"Košice","Destination":"Lipany","Direction":21,"Current_Time":1615295201513,"Current_Day":9,"Current_Hour":14,"Current_Minutes":6,"Current_Seconds":41},{"lon":21.241086,"lat":48.873332,"ROUTE_NUMBER":"Os 8518 ","DELAY":300,"Current_Stop":"Ličartovce","From":"Košice","Destination":"Lipany","Direction":21,"Current_Time":1615295216515,"Current_Day":9,"Current_Hour":14,"Current_Minutes":6,"Current_Seconds":56},{"lon":21.83458,"lat":48.67913,"ROUTE_NUMBER":"REX 1910 ","DELAY":0,"Current_Stop":"Bánovce nad Ondavou","From":"Humenné","Destination":"Košice","Direction":10,"Current_Time":1615295156516,"Current_Day":9,"Current_Hour":14,"Current_Minutes":5,"Current_Seconds":56},{"lon":21.241086,"lat":48.873332,"ROUTE_NUMBER":"Os 8518 ","DELAY":300,"Current_Stop":"Ličartovce","From":"Košice","Destination":"Lipany","Direction":21,"Current_Time":1615295186503,"Current_Day":9,"Current_Hour":14,"Current_Minutes":6,"Current_Seconds":26},{"lon":21.67319,"lat":48.89062,"ROUTE_NUMBER":"Os 9120 ","DELAY":0,"Current_Stop":"Vranov nad Topľou","From":"Humenné","Destination":"Prešov","Direction":3,"Current_Time":1615295546539,"Current_Day":9,"Current_Hour":14,"Current_Minutes":12,"Current_Seconds":26},{"lon":21.82483,"lat":48.86766,"ROUTE_NUMBER":"Os 9119 ","DELAY":0,"Current_Stop":"Strážske","From":"Prešov","Destination":"Humenné","Direction":12,"Current_Time":1615295576536,"Current_Day":9,"Current_Hour":14,"Current_Minutes":12,"Current_Seconds":56},{"lon":21.22393,"lat":48.85288,"ROUTE_NUMBER":"SC 241 Pendolino Košičan","DELAY":360,"Current_Stop":"Kysak","From":"Čadca št. hr.","Destination":"Košice","Direction":58,"Current_Time":1615295576536,"Current_Day":9,"Current_Hour":14,"Current_Minutes":12,"Current_Seconds":56},{"lon":21.22393,"lat":48.85288,"ROUTE_NUMBER":"Os 8519 ","DELAY":240,"Current_Stop":"Kysak","From":"Lipany","Destination":"Košice","Direction":18,"Current_Time":1615295696571,"Current_Day":9,"Current_Hour":14,"Current_Minutes":14,"Current_Seconds":56},{"lon":21.990302,"lat":48.933803,"ROUTE_NUMBER":"Os 9420 ","DELAY":0,"Current_Stop":"Kamenica nad Cirochou","From":"Stakčín","Destination":"Humenné","Direction":5,"Current_Time":1615295756559,"Current_Day":9,"Current_Hour":14,"Current_Minutes":15,"Current_Seconds":56},{"lon":21.22393,"lat":48.85288,"ROUTE_NUMBER":"R 610 TATRAN","DELAY":360,"Current_Stop":"Kysak","From":"Košice","Destination":"Bratislava hlavná stanica","Direction":23,"Current_Time":1615295786556,"Current_Day":9,"Current_Hour":14,"Current_Minutes":16,"Current_Seconds":26},{"lon":20.60299,"lat":48.63228,"ROUTE_NUMBER":"R 814 GEMERAN","DELAY":360,"Current_Stop":"Lipovník","From":"Košice","Destination":"Bratislava hlavná stanica","Direction":23,"Current_Time":1615296056598,"Current_Day":9,"Current_Hour":14,"Current_Minutes":20,"Current_Seconds":56},{"lon":21.90506,"lat":49.26186,"ROUTE_NUMBER":"Os 8920 ","DELAY":0,"Current_Stop":"Medzilaborce","From":"Medzilaborce mesto","Destination":"Humenné","Direction":1,"Current_Time":1615296176596,"Current_Day":9,"Current_Hour":14,"Current_Minutes":22,"Current_Seconds":56},{"lon":21.56926,"lat":48.98993,"ROUTE_NUMBER":"Os 9121 ","DELAY":0,"Current_Stop":"Čierne nad Topľou","From":"Prešov","Destination":"Humenné","Direction":12,"Current_Time":1615296326657,"Current_Day":9,"Current_Hour":14,"Current_Minutes":25,"Current_Seconds":26},{"lon":20.94725,"lat":48.85834,"ROUTE_NUMBER":"Os 7421 ","DELAY":0,"Current_Stop":"Gelnica","From":"Nálepkovo","Destination":"Margecany","Direction":7,"Current_Time":1615296506756,"Current_Day":9,"Current_Hour":14,"Current_Minutes":28,"Current_Seconds":26},{"lon":21.27623,"lat":48.67927,"ROUTE_NUMBER":"Os 6420 ","DELAY":0,"Current_Stop":"Barca","From":"Košice","Destination":"Moldava nad Bodvou mesto","Direction":35,"Current_Time":1615295921586,"Current_Day":9,"Current_Hour":14,"Current_Minutes":18,"Current_Seconds":41},{"lon":21.24837,"lat":48.63143,"ROUTE_NUMBER":"Os 6420 ","DELAY":0,"Current_Stop":"Haniska pri Košiciach","From":"Košice","Destination":"Moldava nad Bodvou mesto","Direction":35,"Current_Time":1615296206633,"Current_Day":9,"Current_Hour":14,"Current_Minutes":23,"Current_Seconds":26},{"lon":21.24837,"lat":48.63143,"ROUTE_NUMBER":"Os 6420 ","DELAY":0,"Current_Stop":"Haniska pri Košiciach","From":"Košice","Destination":"Moldava nad Bodvou mesto","Direction":35,"Current_Time":1615296221612,"Current_Day":9,"Current_Hour":14,"Current_Minutes":23,"Current_Seconds":41},{"lon":20.94725,"lat":48.85834,"ROUTE_NUMBER":"Os 7420 ","DELAY":0,"Current_Stop":"Gelnica","From":"Margecany","Destination":"Nálepkovo","Direction":14,"Current_Time":1615296101616,"Current_Day":9,"Current_Hour":14,"Current_Minutes":21,"Current_Seconds":41},{"lon":21.56926,"lat":48.98993,"ROUTE_NUMBER":"Os 9121 ","DELAY":0,"Current_Stop":"Čierne nad Topľou","From":"Prešov","Destination":"Humenné","Direction":12,"Current_Time":1615296356666,"Current_Day":9,"Current_Hour":14,"Current_Minutes":25,"Current_Seconds":56},{"lon":21.56926,"lat":48.98993,"ROUTE_NUMBER":"Os 9120 ","DELAY":0,"Current_Stop":"Čierne nad Topľou","From":"Humenné","Destination":"Prešov","Direction":3,"Current_Time":1615296506756,"Current_Day":9,"Current_Hour":14,"Current_Minutes":28,"Current_Seconds":26},{"lon":21.56926,"lat":48.98993,"ROUTE_NUMBER":"Os 9120 ","DELAY":0,"Current_Stop":"Čierne nad Topľou","From":"Humenné","Destination":"Prešov","Direction":3,"Current_Time":1615296536766,"Current_Day":9,"Current_Hour":14,"Current_Minutes":28,"Current_Seconds":56},{"lon":21.24601,"lat":48.7958,"ROUTE_NUMBER":"Os 7821 ","DELAY":180,"Current_Stop":"Kostoľany nad Hornádom","From":"Poprad-Tatry","Destination":"Košice","Direction":17,"Current_Time":1615296957868,"Current_Day":9,"Current_Hour":14,"Current_Minutes":35,"Current_Seconds":57},{"lon":20.56151,"lat":48.95041,"ROUTE_NUMBER":"Os 7823 ","DELAY":900,"Current_Stop":"Spišská Nová Ves","From":"Poprad-Tatry","Destination":"Košice","Direction":17,"Current_Time":1615296596755,"Current_Day":9,"Current_Hour":14,"Current_Minutes":29,"Current_Seconds":56},{"lon":21.01324,"lat":48.89469,"ROUTE_NUMBER":"R 610 TATRAN","DELAY":180,"Current_Stop":"Margecany","From":"Košice","Destination":"Bratislava hlavná stanica","Direction":23,"Current_Time":1615296656795,"Current_Day":9,"Current_Hour":14,"Current_Minutes":30,"Current_Seconds":56},{"lon":21.22393,"lat":48.85288,"ROUTE_NUMBER":"R 610 TATRAN","DELAY":360,"Current_Stop":"Kysak","From":"Košice","Destination":"Bratislava hlavná stanica","Direction":23,"Current_Time":1615295801569,"Current_Day":9,"Current_Hour":14,"Current_Minutes":16,"Current_Seconds":41},{"lon":22.172956,"lat":48.983733,"ROUTE_NUMBER":"Os 9421 ","DELAY":0,"Current_Stop":"Snina","From":"Humenné","Destination":"Stakčín","Direction":6,"Current_Time":1615296116594,"Current_Day":9,"Current_Hour":14,"Current_Minutes":21,"Current_Seconds":56},{"lon":21.24837,"lat":48.63143,"ROUTE_NUMBER":"Os 6420 ","DELAY":0,"Current_Stop":"Haniska pri Košiciach","From":"Košice","Destination":"Moldava nad Bodvou mesto","Direction":35,"Current_Time":1615296236616,"Current_Day":9,"Current_Hour":14,"Current_Minutes":23,"Current_Seconds":56},{"lon":21.22393,"lat":48.85288,"ROUTE_NUMBER":"Os 7821 ","DELAY":180,"Current_Stop":"Kysak","From":"Poprad-Tatry","Destination":"Košice","Direction":17,"Current_Time":1615296476819,"Current_Day":9,"Current_Hour":14,"Current_Minutes":27,"Current_Seconds":56},{"lon":21.20295,"lat":49.04477,"ROUTE_NUMBER":"Os 8521 ","DELAY":0,"Current_Stop":"Veľký Šariš","From":"Lipany","Destination":"Košice","Direction":18,"Current_Time":1615297017865,"Current_Day":9,"Current_Hour":14,"Current_Minutes":36,"Current_Seconds":57},{"lon":21.27623,"lat":48.67927,"ROUTE_NUMBER":"Os 6420 ","DELAY":0,"Current_Stop":"Barca","From":"Košice","Destination":"Moldava nad Bodvou mesto","Direction":35,"Current_Time":1615295906574,"Current_Day":9,"Current_Hour":14,"Current_Minutes":18,"Current_Seconds":26},{"lon":20.94725,"lat":48.85834,"ROUTE_NUMBER":"Os 7420 ","DELAY":0,"Current_Stop":"Gelnica","From":"Margecany","Destination":"Nálepkovo","Direction":14,"Current_Time":1615296086593,"Current_Day":9,"Current_Hour":14,"Current_Minutes":21,"Current_Seconds":26},{"lon":20.94725,"lat":48.85834,"ROUTE_NUMBER":"Os 7420 ","DELAY":0,"Current_Stop":"Gelnica","From":"Margecany","Destination":"Nálepkovo","Direction":14,"Current_Time":1615296116594,"Current_Day":9,"Current_Hour":14,"Current_Minutes":21,"Current_Seconds":56},{"lon":21.249126,"lat":48.983379,"ROUTE_NUMBER":"Os 8518 ","DELAY":360,"Current_Stop":"Prešov","From":"Košice","Destination":"Lipany","Direction":21,"Current_Time":1615296236616,"Current_Day":9,"Current_Hour":14,"Current_Minutes":23,"Current_Seconds":56},{"lon":20.94725,"lat":48.85834,"ROUTE_NUMBER":"Os 7421 ","DELAY":0,"Current_Stop":"Gelnica","From":"Nálepkovo","Destination":"Margecany","Direction":7,"Current_Time":1615296536766,"Current_Day":9,"Current_Hour":14,"Current_Minutes":28,"Current_Seconds":56},{"lon":20.52637,"lat":49.25529,"ROUTE_NUMBER":"Os 8319 ","DELAY":0,"Current_Stop":"Podolínec","From":"Poprad-Tatry","Destination":"Stará Ľubovňa","Direction":2,"Current_Time":1615296806835,"Current_Day":9,"Current_Hour":14,"Current_Minutes":33,"Current_Seconds":26},{"lon":20.63426,"lat":48.91024,"ROUTE_NUMBER":"Os 7823 ","DELAY":780,"Current_Stop":"Markušovce","From":"Poprad-Tatry","Destination":"Košice","Direction":17,"Current_Time":1615297198956,"Current_Day":9,"Current_Hour":14,"Current_Minutes":39,"Current_Seconds":58},{"lon":21.22393,"lat":48.85288,"ROUTE_NUMBER":"Os 7820 ","DELAY":300,"Current_Stop":"Kysak","From":"Košice","Destination":"Poprad-Tatry","Direction":9,"Current_Time":1615297257966,"Current_Day":9,"Current_Hour":14,"Current_Minutes":40,"Current_Seconds":57},{"lon":21.67169,"lat":48.57716,"ROUTE_NUMBER":"Os 9027 ","DELAY":0,"Current_Stop":"Úpor","From":"Michaľany","Destination":"Trebišov","Direction":63,"Current_Time":1615307564612,"Current_Day":9,"Current_Hour":17,"Current_Minutes":32,"Current_Seconds":44},{"lon":21.22393,"lat":48.85288,"ROUTE_NUMBER":"Os 7827 ","DELAY":0,"Current_Stop":"Kysak","From":"Poprad-Tatry","Destination":"Košice","Direction":17,"Current_Time":1615307624619,"Current_Day":9,"Current_Hour":17,"Current_Minutes":33,"Current_Seconds":44},{"lon":21.01324,"lat":48.89469,"ROUTE_NUMBER":"R 607 TATRAN","DELAY":120,"Current_Stop":"Margecany","From":"Bratislava hlavná stanica","Destination":"Košice","Direction":20,"Current_Time":1615307954767,"Current_Day":9,"Current_Hour":17,"Current_Minutes":39,"Current_Seconds":14},{"lon":21.01324,"lat":48.89469,"ROUTE_NUMBER":"R 607 TATRAN","DELAY":120,"Current_Stop":"Margecany","From":"Bratislava hlavná stanica","Destination":"Košice","Direction":20,"Current_Time":1615307969727,"Current_Day":9,"Current_Hour":17,"Current_Minutes":39,"Current_Seconds":29},{"lon":21.82483,"lat":48.86766,"ROUTE_NUMBER":"REX 1914 ","DELAY":0,"Current_Stop":"Strážske","From":"Humenné","Destination":"Košice","Direction":10,"Current_Time":1615308014748,"Current_Day":9,"Current_Hour":17,"Current_Minutes":40,"Current_Seconds":14},{"lon":21.249126,"lat":48.983379,"ROUTE_NUMBER":"Os 8527 ","DELAY":0,"Current_Stop":"Prešov","From":"Lipany","Destination":"Košice","Direction":18,"Current_Time":1615308179741,"Current_Day":9,"Current_Hour":17,"Current_Minutes":42,"Current_Seconds":59},{"lon":22.172956,"lat":48.983733,"ROUTE_NUMBER":"Os 9428 ","DELAY":0,"Current_Stop":"Snina","From":"Stakčín","Destination":"Humenné","Direction":5,"Current_Time":1615308284803,"Current_Day":9,"Current_Hour":17,"Current_Minutes":44,"Current_Seconds":44},{"lon":21.249126,"lat":48.983379,"ROUTE_NUMBER":"Os 8527 ","DELAY":0,"Current_Stop":"Prešov","From":"Lipany","Destination":"Košice","Direction":18,"Current_Time":1615308164800,"Current_Day":9,"Current_Hour":17,"Current_Minutes":42,"Current_Seconds":44},{"lon":20.63426,"lat":48.91024,"ROUTE_NUMBER":"Os 7829 ","DELAY":120,"Current_Stop":"Markušovce","From":"Poprad-Tatry","Destination":"Košice","Direction":17,"Current_Time":1615307924732,"Current_Day":9,"Current_Hour":17,"Current_Minutes":38,"Current_Seconds":44},{"lon":21.89858,"lat":48.75074,"ROUTE_NUMBER":"REX 1914 ","DELAY":120,"Current_Stop":"Michalovce","From":"Humenné","Destination":"Košice","Direction":10,"Current_Time":1615308809939,"Current_Day":9,"Current_Hour":17,"Current_Minutes":53,"Current_Seconds":29},{"lon":21.90506,"lat":49.26186,"ROUTE_NUMBER":"Os 8927 ","DELAY":0,"Current_Stop":"Medzilaborce","From":"Humenné","Destination":"Medzilaborce mesto","Direction":13,"Current_Time":1615308704886,"Current_Day":9,"Current_Hour":17,"Current_Minutes":51,"Current_Seconds":44},{"lon":21.89858,"lat":48.75074,"ROUTE_NUMBER":"REX 1914 ","DELAY":120,"Current_Stop":"Michalovce","From":"Humenné","Destination":"Košice","Direction":10,"Current_Time":1615308794919,"Current_Day":9,"Current_Hour":17,"Current_Minutes":53,"Current_Seconds":14},{"lon":21.99927,"lat":48.39944,"ROUTE_NUMBER":"REX 1965 ","DELAY":60,"Current_Stop":"Pribeník","From":"Košice","Destination":"Čierna nad Tisou","Direction":8,"Current_Time":1615308644855,"Current_Day":9,"Current_Hour":17,"Current_Minutes":50,"Current_Seconds":44},{"lon":20.88621,"lat":48.92171,"ROUTE_NUMBER":"REX 1762 ","DELAY":420,"Current_Stop":"Krompachy","From":"Košice","Destination":"Poprad-Tatry","Direction":9,"Current_Time":1615309154989,"Current_Day":9,"Current_Hour":17,"Current_Minutes":59,"Current_Seconds":14},{"lon":21.75188,"lat":48.85705,"ROUTE_NUMBER":"Os 9127 ","DELAY":0,"Current_Stop":"Nižný Hrabovec","From":"Prešov","Destination":"Humenné","Direction":12,"Current_Time":1615309094965,"Current_Day":9,"Current_Hour":17,"Current_Minutes":58,"Current_Seconds":14},{"lon":22.05519,"lat":48.95489,"ROUTE_NUMBER":"Os 9429 ","DELAY":0,"Current_Stop":"Dlhé nad Cirochou","From":"Humenné","Destination":"Stakčín","Direction":6,"Current_Time":1615309395051,"Current_Day":9,"Current_Hour":18,"Current_Minutes":3,"Current_Seconds":15},{"lon":21.241086,"lat":48.873332,"ROUTE_NUMBER":"Os 8527 ","DELAY":0,"Current_Stop":"Ličartovce","From":"Lipany","Destination":"Košice","Direction":18,"Current_Time":1615309515090,"Current_Day":9,"Current_Hour":18,"Current_Minutes":5,"Current_Seconds":15},{"lon":21.83458,"lat":48.67913,"ROUTE_NUMBER":"REX 1914 ","DELAY":0,"Current_Stop":"Bánovce nad Ondavou","From":"Humenné","Destination":"Košice","Direction":10,"Current_Time":1615309335035,"Current_Day":9,"Current_Hour":18,"Current_Minutes":2,"Current_Seconds":15},{"lon":21.241086,"lat":48.873332,"ROUTE_NUMBER":"Os 8527 ","DELAY":0,"Current_Stop":"Ličartovce","From":"Lipany","Destination":"Košice","Direction":18,"Current_Time":1615309530101,"Current_Day":9,"Current_Hour":18,"Current_Minutes":5,"Current_Seconds":30},{"lon":21.77576,"lat":48.65229,"ROUTE_NUMBER":"REX 1909 ","DELAY":60,"Current_Stop":"Hrinište","From":"Košice","Destination":"Humenné","Direction":15,"Current_Time":1615309049993,"Current_Day":9,"Current_Hour":17,"Current_Minutes":57,"Current_Seconds":29},{"lon":21.75188,"lat":48.85705,"ROUTE_NUMBER":"Os 9127 ","DELAY":0,"Current_Stop":"Nižný Hrabovec","From":"Prešov","Destination":"Humenné","Direction":12,"Current_Time":1615309124981,"Current_Day":9,"Current_Hour":17,"Current_Minutes":58,"Current_Seconds":44},{"lon":22.05519,"lat":48.95489,"ROUTE_NUMBER":"Os 9428 ","DELAY":0,"Current_Stop":"Dlhé nad Cirochou","From":"Stakčín","Destination":"Humenné","Direction":5,"Current_Time":1615309244984,"Current_Day":9,"Current_Hour":18,"Current_Minutes":0,"Current_Seconds":44},{"lon":21.77576,"lat":48.65229,"ROUTE_NUMBER":"REX 1909 ","DELAY":60,"Current_Stop":"Hrinište","From":"Košice","Destination":"Humenné","Direction":15,"Current_Time":1615309034963,"Current_Day":9,"Current_Hour":17,"Current_Minutes":57,"Current_Seconds":14},{"lon":21.75188,"lat":48.85705,"ROUTE_NUMBER":"Os 9128 ","DELAY":0,"Current_Stop":"Nižný Hrabovec","From":"Humenné","Destination":"Prešov","Direction":3,"Current_Time":1615309244984,"Current_Day":9,"Current_Hour":18,"Current_Minutes":0,"Current_Seconds":44},{"lon":21.22393,"lat":48.85288,"ROUTE_NUMBER":"Os 8526 ","DELAY":420,"Current_Stop":"Kysak","From":"Košice","Destination":"Lipany","Direction":21,"Current_Time":1615309244984,"Current_Day":9,"Current_Hour":18,"Current_Minutes":0,"Current_Seconds":44},{"lon":21.22393,"lat":48.85288,"ROUTE_NUMBER":"Os 8527 ","DELAY":120,"Current_Stop":"Kysak","From":"Lipany","Destination":"Košice","Direction":18,"Current_Time":1615309815268,"Current_Day":9,"Current_Hour":18,"Current_Minutes":10,"Current_Seconds":15},{"lon":21.22393,"lat":48.85288,"ROUTE_NUMBER":"Os 8527 ","DELAY":120,"Current_Stop":"Kysak","From":"Lipany","Destination":"Košice","Direction":18,"Current_Time":1615309845379,"Current_Day":9,"Current_Hour":18,"Current_Minutes":10,"Current_Seconds":45},{"lon":21.6262,"lat":48.52172,"ROUTE_NUMBER":"Os 8827 ","DELAY":240,"Current_Stop":"Michaľany","From":"Košice","Destination":"Čierna nad Tisou","Direction":8,"Current_Time":1615309845379,"Current_Day":9,"Current_Hour":18,"Current_Minutes":10,"Current_Seconds":45},{"lon":21.629827,"lat":48.61264,"ROUTE_NUMBER":"REX 1914 ","DELAY":60,"Current_Stop":"Čeľovce","From":"Humenné","Destination":"Košice","Direction":10,"Current_Time":1615310595578,"Current_Day":9,"Current_Hour":18,"Current_Minutes":23,"Current_Seconds":15},{"lon":21.22393,"lat":48.85288,"ROUTE_NUMBER":"Os 7829 ","DELAY":180,"Current_Stop":"Kysak","From":"Poprad-Tatry","Destination":"Košice","Direction":17,"Current_Time":1615311511005,"Current_Day":9,"Current_Hour":18,"Current_Minutes":38,"Current_Seconds":31},{"lon":21.27623,"lat":48.67927,"ROUTE_NUMBER":"Os 6428 ","DELAY":60,"Current_Stop":"Barca","From":"Košice","Destination":"Moldava nad Bodvou mesto","Direction":35,"Current_Time":1615311525954,"Current_Day":9,"Current_Hour":18,"Current_Minutes":38,"Current_Seconds":45},{"lon":21.01324,"lat":48.89469,"ROUTE_NUMBER":"Os 7829 ","DELAY":60,"Current_Stop":"Margecany","From":"Poprad-Tatry","Destination":"Košice","Direction":17,"Current_Time":1615310025340,"Current_Day":9,"Current_Hour":18,"Current_Minutes":13,"Current_Seconds":45},{"lon":21.249126,"lat":48.983379,"ROUTE_NUMBER":"Os 8526 ","DELAY":60,"Current_Stop":"Prešov","From":"Košice","Destination":"Lipany","Direction":21,"Current_Time":1615310325367,"Current_Day":9,"Current_Hour":18,"Current_Minutes":18,"Current_Seconds":45},{"lon":21.22393,"lat":48.85288,"ROUTE_NUMBER":"Os 7829 ","DELAY":180,"Current_Stop":"Kysak","From":"Poprad-Tatry","Destination":"Košice","Direction":17,"Current_Time":1615311495944,"Current_Day":9,"Current_Hour":18,"Current_Minutes":38,"Current_Seconds":15},{"lon":21.24837,"lat":48.63143,"ROUTE_NUMBER":"R 813 GEMERAN","DELAY":1260,"Current_Stop":"Haniska pri Košiciach","From":"Bratislava hlavná stanica","Destination":"Košice","Direction":20,"Current_Time":1615312096131,"Current_Day":9,"Current_Hour":18,"Current_Minutes":48,"Current_Seconds":16},{"lon":20.80377,"lat":48.93557,"ROUTE_NUMBER":"Os 7831 ","DELAY":300,"Current_Stop":"Spišské Vlachy","From":"Poprad-Tatry","Destination":"Košice","Direction":17,"Current_Time":1615312606238,"Current_Day":9,"Current_Hour":18,"Current_Minutes":56,"Current_Seconds":46},